<?xml version="1.0" encoding="utf-8"?>
<kml xmlns="http://www.opengis.net/kml/2.2" xmlns:gx="http://www.google.com/kml/ext/2.2" xmlns:kml="http://www.opengis.net/kml/2.2" xmlns:atom="http://www.w3.org/2005/Atom">
    <Document>
   <Style id="monumentIcon">
      <IconStyle>
         <scale>0.5</scale>
         <Icon>
            <href>http://google-maps-icons.googlecode.com/files/monument.png</href>
         </Icon>
      </IconStyle>
   </Style>
    <name>Памятники архитектуры Украины</name>
    <open>1</open>
    <Placemark>
      <name>Больница Бабушкиных (каменная) 1912 г.</name>
      <styleUrl>#monumentIcon</styleUrl>
      <Point>
        <coordinates>30.524908,50.419846</coordinates>
      </Point>
    </Placemark>
    <Placemark>
      <name>Боярский двор (каменный) 15 в.</name>
      <styleUrl>#monumentIcon</styleUrl>
      <Point>
        <coordinates>24.901329,49.804661,0</coordinates>
      </Point>
    </Placemark>
    <Placemark>
      <name>Руины и подвалы усадьбы Гончарова</name>
      <styleUrl>#monumentIcon</styleUrl>
      <Point>
        <coordinates>35.302982,48.421017,0</coordinates>
      </Point>
    </Placemark>
    <Placemark>
      <name>Бывший доходный дом Покровской церкви, 1902</name>
      <styleUrl>#monumentIcon</styleUrl>
      <Point>
        <coordinates>30.735731,46.480118,0</coordinates>
      </Point>
    </Placemark>
    <Placemark>
      <name>Ратуша 1811 г.</name>
      <styleUrl>#monumentIcon</styleUrl>
      <Point>
        <coordinates>24.938753,49.445232,0</coordinates>
      </Point>
    </Placemark>
    <Placemark>
      <name>1-й жилой дом врача</name>
      <styleUrl>#monumentIcon</styleUrl>
      <Point>
        <coordinates>30.513636,50.455223,0</coordinates>
      </Point>
    </Placemark>
    <Placemark>
      <name>Аграрный университет (каменный) 1925-1931 гг.</name>
      <styleUrl>#monumentIcon</styleUrl>
      <Point>
        <coordinates>30.496767,50.383728,0</coordinates>
      </Point>
    </Placemark>
    <Placemark>
      <name>Амбар и винный погреб (каменный) 1781 г.</name>
      <styleUrl>#monumentIcon</styleUrl>
      <Point>
        <coordinates>22.29443,48.625011,0</coordinates>
      </Point>
    </Placemark>
    <Placemark>
      <name>Анатомический театр (каменный) 1853 г.</name>
      <styleUrl>#monumentIcon</styleUrl>
      <Point>
        <coordinates>30.505575,50.447147</coordinates>
      </Point>
    </Placemark>
    <Placemark>
      <name>Ансамбль Круглой площади 1805-1841 гг.</name>
      <styleUrl>#monumentIcon</styleUrl>
      <Point>
        <coordinates>34.551453,49.589722,0</coordinates>
      </Point>
    </Placemark>
    <Placemark>
      <name>Ансамбль площади Рынок (каменный) 14-19 в.</name>
      <styleUrl>#monumentIcon</styleUrl>
      <Point>
        <coordinates>24.03138,49.842339,0</coordinates>
      </Point>
    </Placemark>
    <Placemark>
      <name>Бывший готель Биржа, 1887, 1896 гг.</name>
      <styleUrl>#monumentIcon</styleUrl>
      <Point>
        <coordinates>30.742353,46.4815139</coordinates>
      </Point>
    </Placemark>
    <Placemark>
      <name>Бывший дом банковских служащих 1906-07 гг.</name>
      <styleUrl>#monumentIcon</styleUrl>
      <Point>
        <coordinates>30.742403,46.48214,0</coordinates>
      </Point>
    </Placemark>
    <Placemark>
      <name>Аудитория Научного общества 1895 г.</name>
      <styleUrl>#monumentIcon</styleUrl>
      <Point>
        <coordinates>35.036926,48.470768,0</coordinates>
      </Point>
    </Placemark>
    <Placemark>
      <name>Государственные дачи</name>
      <styleUrl>#monumentIcon</styleUrl>
      <Point>
        <coordinates>30.599125,50.286194,0</coordinates>
      </Point>
    </Placemark>
    <Placemark>
      <name>Библиотека университета (каменная) 1940 г.</name>
      <styleUrl>#monumentIcon</styleUrl>
      <Point>
        <coordinates>30.511948,50.442978,0</coordinates>
      </Point>
    </Placemark>
    <Placemark>
      <name>Бывшее Комерческое училище, 1876-1877 гг.</name>
      <styleUrl>#monumentIcon</styleUrl>
      <Point>
        <coordinates>30.733612,46.489857,0</coordinates>
      </Point>
    </Placemark>
    <Placemark>
      <name>Банк, (каменный) 1913 г.</name>
      <styleUrl>#monumentIcon</styleUrl>
      <Point>
        <coordinates>30.52162,50.447189,0</coordinates>
      </Point>
    </Placemark>
    <Placemark>
      <name>Больница (каменная) 1904 г.</name>
      <styleUrl>#monumentIcon</styleUrl>
      <Point>
        <coordinates>30.54221,50.447964,0</coordinates>
      </Point>
    </Placemark>
    <Placemark>
      <name>Библиотека (каменная) 1897 г.</name>
      <styleUrl>#monumentIcon</styleUrl>
      <Point>
        <coordinates>32.608429,46.633961</coordinates>
      </Point>
    </Placemark>
    <Placemark>
      <name>Больница (каменная) 1804-1820 гг.</name>
      <styleUrl>#monumentIcon</styleUrl>
      <Point>
        <coordinates>30.72365,46.493279,0</coordinates>
      </Point>
    </Placemark>
    <Placemark>
      <name>Больница (каменная) 1840 г.</name>
      <styleUrl>#monumentIcon</styleUrl>
      <Point>
        <coordinates>32.610119,46.6472019</coordinates>
      </Point>
    </Placemark>
    <Placemark>
      <name>Дом присутственных мест (суд)(каменный) 1857-1893 гг.</name>
      <styleUrl>#monumentIcon</styleUrl>
      <Point>
        <coordinates>26.572676,48.673523,0</coordinates>
      </Point>
    </Placemark>
    <Placemark>
      <name>Дом консистории (каменный) 18-19 в.</name>
      <styleUrl>#monumentIcon</styleUrl>
      <Point>
        <coordinates>26.571432,48.673473,0</coordinates>
      </Point>
    </Placemark>
    <Placemark>
      <name>Армянский дом</name>
      <styleUrl>#monumentIcon</styleUrl>
      <Point>
        <coordinates>26.570953,48.6735419</coordinates>
      </Point>
    </Placemark>
    <Placemark>
      <name>Дом Верховной Рады Украины (каменный) 1936 - 1939 гг.</name>
      <styleUrl>#monumentIcon</styleUrl>
      <Point>
        <coordinates>30.536722,50.4471439</coordinates>
      </Point>
    </Placemark>
    <Placemark>
      <name>Братский монастирь (каменный) 17 -19 ст</name>
      <styleUrl>#monumentIcon</styleUrl>
      <Point>
        <coordinates>30.519039,50.464439,0</coordinates>
      </Point>
    </Placemark>
    <Placemark>
      <name>Богодельня (каменная) 1820 г.</name>
      <styleUrl>#monumentIcon</styleUrl>
      <Point>
        <coordinates>34.54929,49.58297,0</coordinates>
      </Point>
    </Placemark>
    <Placemark>
      <name>Дом Вучини (каменный) 1849 гг.</name>
      <styleUrl>#monumentIcon</styleUrl>
      <Point>
        <coordinates>30.742748,46.480133</coordinates>
      </Point>
    </Placemark>
    <Placemark>
      <name>Дом Галицкого сейма 1881 г.</name>
      <styleUrl>#monumentIcon</styleUrl>
      <Point>
        <coordinates>24.021931,49.840137,0</coordinates>
      </Point>
    </Placemark>
    <Placemark>
      <name>Дом Времен года</name>
      <styleUrl>#monumentIcon</styleUrl>
      <Point>
        <coordinates>24.032518,49.84325,0</coordinates>
      </Point>
    </Placemark>
    <Placemark>
      <name>Дом казенный</name>
      <styleUrl>#monumentIcon</styleUrl>
      <Point>
        <coordinates>26.580767,48.676224,0</coordinates>
      </Point>
    </Placemark>
    <Placemark>
      <name>Дом Горного института (каменный) 1903 г.</name>
      <styleUrl>#monumentIcon</styleUrl>
      <Point>
        <coordinates>35.061943,48.455601,0</coordinates>
      </Point>
    </Placemark>
    <Placemark>
      <name>Дом Государственного банка</name>
      <styleUrl>#monumentIcon</styleUrl>
      <Point>
        <coordinates>26.578989,48.677799,0</coordinates>
      </Point>
    </Placemark>
    <Placemark>
      <name>Дом полковника Лизогуба</name>
      <styleUrl>#monumentIcon</styleUrl>
      <Point>
        <coordinates>31.309723,51.487499,0</coordinates>
      </Point>
    </Placemark>
    <Placemark>
      <name>Будинок старой крепости (каменный) 15 в. - 1560 г.</name>
      <styleUrl>#monumentIcon</styleUrl>
      <Point>
        <coordinates>26.572439,48.674206,0</coordinates>
      </Point>
    </Placemark>
    <Placemark>
      <name>Бывшая вилла Деникина</name>
      <styleUrl>#monumentIcon</styleUrl>
      <Point>
        <coordinates>33.539101,44.62664,0</coordinates>
      </Point>
    </Placemark>
    <Placemark>
      <name>Воронцовский дворец (каменный) 1828 г.</name>
      <styleUrl>#monumentIcon</styleUrl>
      <Point>
        <coordinates>30.738741,46.4901619</coordinates>
      </Point>
    </Placemark>
    <Placemark>
      <name>Дом страхового общества Днестр 1905 г.</name>
      <styleUrl>#monumentIcon</styleUrl>
      <Point>
        <coordinates>24.035015,49.841782,0</coordinates>
      </Point>
    </Placemark>
    <Placemark>
      <name>Бурса (каменная) 1778-1816 гг.</name>
      <styleUrl>#monumentIcon</styleUrl>
      <Point>
        <coordinates>30.524302,50.46759,0</coordinates>
      </Point>
    </Placemark>
    <Placemark>
      <name>Турецкий дом</name>
      <styleUrl>#monumentIcon</styleUrl>
      <Point>
        <coordinates>26.572393,48.671154,0</coordinates>
      </Point>
    </Placemark>
    <Placemark>
      <name>Бывшая гостиница Северная, 1870 г.</name>
      <styleUrl>#monumentIcon</styleUrl>
      <Point>
        <coordinates>30.740944,46.4860689</coordinates>
      </Point>
    </Placemark>
    <Placemark>
      <name>Бывший отель Парижский 1835 г.</name>
      <styleUrl>#monumentIcon</styleUrl>
      <Point>
        <coordinates>30.74227,46.483631,0</coordinates>
      </Point>
    </Placemark>
    <Placemark>
      <name>Губернское земство 1903 г.</name>
      <styleUrl>#monumentIcon</styleUrl>
      <Point>
        <coordinates>34.561398,49.5835,0</coordinates>
      </Point>
    </Placemark>
    <Placemark>
      <name>Армянский дом</name>
      <styleUrl>#monumentIcon</styleUrl>
      <Point>
        <coordinates>26.573593,48.671562</coordinates>
      </Point>
    </Placemark>
    <Placemark>
      <name>Воронцовский дворец</name>
      <styleUrl>#monumentIcon</styleUrl>
      <Point>
        <coordinates>30.733189,46.483147,0</coordinates>
      </Point>
    </Placemark>
    <Placemark>
      <name>Здание правления Ужанского комитета (каменный) 1809 г.</name>
      <styleUrl>#monumentIcon</styleUrl>
      <Point>
        <coordinates>22.296638,48.624798,0</coordinates>
      </Point>
    </Placemark>
    <Placemark>
      <name>Вилла Ксения 1911 г.</name>
      <styleUrl>#monumentIcon</styleUrl>
      <Point>
        <coordinates>34.001152,44.403774,0</coordinates>
      </Point>
    </Placemark>
    <Placemark>
      <name>Волостное правление (каменное) 1823 г.</name>
      <styleUrl>#monumentIcon</styleUrl>
      <Point>
        <coordinates>36.812988,49.776428,0</coordinates>
      </Point>
    </Placemark>
    <Placemark>
      <name>Вилла Мечта 1911 г.</name>
      <styleUrl>#monumentIcon</styleUrl>
      <Point>
        <coordinates>34.002296,44.405407,0</coordinates>
      </Point>
    </Placemark>
    <Placemark>
      <name>Вице-губернаторский дом (каменный) 1811 г.</name>
      <styleUrl>#monumentIcon</styleUrl>
      <Point>
        <coordinates>34.551983,49.591019,0</coordinates>
      </Point>
    </Placemark>
    <Placemark>
      <name>Графская пристань (каменная) 1846 г.</name>
      <styleUrl>#monumentIcon</styleUrl>
      <Point>
        <coordinates>33.526966,44.616997,0</coordinates>
      </Point>
    </Placemark>
    <Placemark>
      <name>Водолечебница Исаковича 1876 г.</name>
      <styleUrl>#monumentIcon</styleUrl>
      <Point>
        <coordinates>30.731215,46.476738,0</coordinates>
      </Point>
    </Placemark>
    <Placemark>
      <name>Гимназия (каменная) 1883 г.</name>
      <styleUrl>#monumentIcon</styleUrl>
      <Point>
        <coordinates>25.151562,50.0829319</coordinates>
      </Point>
    </Placemark>
    <Placemark>
      <name>Гiмназiя (каменный) 1839 г.</name>
      <styleUrl>#monumentIcon</styleUrl>
      <Point>
        <coordinates>26.247927,50.615604,0</coordinates>
      </Point>
    </Placemark>
    <Placemark>
      <name>Гимназия высших наук (каменная), 1820 г.</name>
      <styleUrl>#monumentIcon</styleUrl>
      <Point>
        <coordinates>31.881399,51.052799,0</coordinates>
      </Point>
    </Placemark>
    <Placemark>
      <name>Городская управа (каменный) 1820-е гг.</name>
      <styleUrl>#monumentIcon</styleUrl>
      <Point>
        <coordinates>36.681068,49.835281,0</coordinates>
      </Point>
    </Placemark>
    <Placemark>
      <name>Гостиница Славянская 19 в.</name>
      <styleUrl>#monumentIcon</styleUrl>
      <Point>
        <coordinates>32.063702,49.444843</coordinates>
      </Point>
    </Placemark>
    <Placemark>
      <name>Госпиталь (каменный) 19 в.</name>
      <styleUrl>#monumentIcon</styleUrl>
      <Point>
        <coordinates>34.092628,44.957008,0</coordinates>
      </Point>
    </Placemark>
    <Placemark>
      <name>Главный корпус Киевского Политехнического Института, 19-20 в.</name>
      <styleUrl>#monumentIcon</styleUrl>
      <Point>
        <coordinates>30.461002,50.450069,0</coordinates>
      </Point>
    </Placemark>
    <Placemark>
      <name>Городская библиотека (каменная) 1906 г.</name>
      <styleUrl>#monumentIcon</styleUrl>
      <Point>
        <coordinates>30.725857,46.491066,0</coordinates>
      </Point>
    </Placemark>
    <Placemark>
      <name>Городской суд 1910 г.</name>
      <styleUrl>#monumentIcon</styleUrl>
      <Point>
        <coordinates>22.643433,48.206478,0</coordinates>
      </Point>
    </Placemark>
    <Placemark>
      <name>Гостиний двор (каменный) 1809-1829 гг.</name>
      <styleUrl>#monumentIcon</styleUrl>
      <Point>
        <coordinates>30.518627,50.463924,0</coordinates>
      </Point>
    </Placemark>
    <Placemark>
      <name>Дворец графов Шенборнов 1895</name>
      <styleUrl>#monumentIcon</styleUrl>
      <Point>
        <coordinates>22.874615,48.524948</coordinates>
      </Point>
    </Placemark>
    <Placemark>
      <name>Отель (каменный) 1912 г.</name>
      <styleUrl>#monumentIcon</styleUrl>
      <Point>
        <coordinates>35.039719,48.468369,0</coordinates>
      </Point>
    </Placemark>
    <Placemark>
      <name>Гостиный двор (каменный) 20 в.</name>
      <styleUrl>#monumentIcon</styleUrl>
      <Point>
        <coordinates>25.318542,50.738335,0</coordinates>
      </Point>
    </Placemark>
    <Placemark>
      <name>Отель Петербурзький (каменный) 1830 г.</name>
      <styleUrl>#monumentIcon</styleUrl>
      <Point>
        <coordinates>30.741205,46.487923,0</coordinates>
      </Point>
    </Placemark>
    <Placemark>
      <name>Гостиница Бристоль 1899 г.</name>
      <styleUrl>#monumentIcon</styleUrl>
      <Point>
        <coordinates>30.742924,46.481075,0</coordinates>
      </Point>
    </Placemark>
    <Placemark>
      <name>Вилла командующего Черноморским Флотом</name>
      <styleUrl>#monumentIcon</styleUrl>
      <Point>
        <coordinates>33.434185,44.598961,0</coordinates>
      </Point>
    </Placemark>
    <Placemark>
      <name>Вилла Виктора Януковича</name>
      <styleUrl>#monumentIcon</styleUrl>
      <Point>
        <coordinates>30.475018,50.613705,0</coordinates>
      </Point>
    </Placemark>
    <Placemark>
      <name>Вилла Никиты Хрущева</name>
      <styleUrl>#monumentIcon</styleUrl>
      <Point>
        <coordinates>30.474096,50.468407</coordinates>
      </Point>
    </Placemark>
    <Placemark>
      <name>Отель Пале-Рояль 1899 г.</name>
      <styleUrl>#monumentIcon</styleUrl>
      <Point>
        <coordinates>30.522627,50.44228,0</coordinates>
      </Point>
    </Placemark>
    <Placemark>
      <name>Вилла Виктора Ющенко</name>
      <styleUrl>#monumentIcon</styleUrl>
      <Point>
        <coordinates>30.590834,50.180553,0</coordinates>
      </Point>
    </Placemark>
    <Placemark>
      <name>Губернаторский Дом (каменный) 1780 г.</name>
      <styleUrl>#monumentIcon</styleUrl>
      <Point>
        <coordinates>30.546476,50.442909,0</coordinates>
      </Point>
    </Placemark>
    <Placemark>
      <name>Вилла Владимира Литвина</name>
      <styleUrl>#monumentIcon</styleUrl>
      <Point>
        <coordinates>30.741667,50.156944,0</coordinates>
      </Point>
    </Placemark>
    <Placemark>
      <name>Вилла инженера-путейца Николая Аничкова</name>
      <styleUrl>#monumentIcon</styleUrl>
      <Point>
        <coordinates>30.38365,50.45496,0</coordinates>
      </Point>
    </Placemark>
    <Placemark>
      <name>Вилла Горького</name>
      <styleUrl>#monumentIcon</styleUrl>
      <Point>
        <coordinates>33.784447,44.38969,0</coordinates>
      </Point>
    </Placemark>
    <Placemark>
      <name>Вилла Макаревского, 1890</name>
      <styleUrl>#monumentIcon</styleUrl>
      <Point>
        <coordinates>30.76111,46.458332,0</coordinates>
      </Point>
    </Placemark>
    <Placemark>
      <name>Вилла Михаила Горбачева</name>
      <styleUrl>#monumentIcon</styleUrl>
      <Point>
        <coordinates>33.757675,44.392052,0</coordinates>
      </Point>
    </Placemark>
    <Placemark>
      <name>Вилла Леонида Брежнева</name>
      <styleUrl>#monumentIcon</styleUrl>
      <Point>
        <coordinates>34.147442,44.463337,0</coordinates>
      </Point>
    </Placemark>
    <Placemark>
      <name>Вилла Леонида Брежнева</name>
      <styleUrl>#monumentIcon</styleUrl>
      <Point>
        <coordinates>22.36451,48.670906,0</coordinates>
      </Point>
    </Placemark>
    <Placemark>
      <name>Дворец (каменный), конец 18 в.</name>
      <styleUrl>#monumentIcon</styleUrl>
      <Point>
        <coordinates>29.21911,49.361378,0</coordinates>
      </Point>
    </Placemark>
    <Placemark>
      <name>Вилла Никиты Хрущева</name>
      <styleUrl>#monumentIcon</styleUrl>
      <Point>
        <coordinates>22.396484,48.718571,0</coordinates>
      </Point>
    </Placemark>
    <Placemark>
      <name>Вилла Леонида Брежнева</name>
      <styleUrl>#monumentIcon</styleUrl>
      <Point>
        <coordinates>35.184849,47.812889,0</coordinates>
      </Point>
    </Placemark>
    <Placemark>
      <name>Вилла Маразли</name>
      <styleUrl>#monumentIcon</styleUrl>
      <Point>
        <coordinates>30.7558,46.4743879</coordinates>
      </Point>
    </Placemark>
    <Placemark>
      <name>Дворец (каменный) 1840 г.</name>
      <styleUrl>#monumentIcon</styleUrl>
      <Point>
        <coordinates>35.952412,49.924473,0</coordinates>
      </Point>
    </Placemark>
    <Placemark>
      <name>Вилла Милос (каменная) 1911 г.</name>
      <styleUrl>#monumentIcon</styleUrl>
      <Point>
        <coordinates>35.382607,45.038303,0</coordinates>
      </Point>
    </Placemark>
    <Placemark>
      <name>Вилла Раевских 1887 г.</name>
      <styleUrl>#monumentIcon</styleUrl>
      <Point>
        <coordinates>34.356709,44.590103,0</coordinates>
      </Point>
    </Placemark>
    <Placemark>
      <name>Вилла по улице Львовской, 18</name>
      <styleUrl>#monumentIcon</styleUrl>
      <Point>
        <coordinates>30.375525,50.455318,0</coordinates>
      </Point>
    </Placemark>
    <Placemark>
      <name>Вилла Стамболи</name>
      <styleUrl>#monumentIcon</styleUrl>
      <Point>
        <coordinates>35.38253,45.0424769</coordinates>
      </Point>
    </Placemark>
    <Placemark>
      <name>Вилла по проспекте Победы, 130/1</name>
      <styleUrl>#monumentIcon</styleUrl>
      <Point>
        <coordinates>30.36561,50.456711,0</coordinates>
      </Point>
    </Placemark>
    <Placemark>
      <name>Дворец (каменный) 1810-1892 г.</name>
      <styleUrl>#monumentIcon</styleUrl>
      <Point>
        <coordinates>30.965755,46.964111,0</coordinates>
      </Point>
    </Placemark>
    <Placemark>
      <name>Дворец</name>
      <styleUrl>#monumentIcon</styleUrl>
      <Point>
        <coordinates>25.953888,48.962502</coordinates>
      </Point>
    </Placemark>
    <Placemark>
      <name>Вилла Раевских</name>
      <styleUrl>#monumentIcon</styleUrl>
      <Point>
        <coordinates>33.767498,44.390278,0</coordinates>
      </Point>
    </Placemark>
    <Placemark>
      <name>Дворец (каменный) 18 в.</name>
      <styleUrl>#monumentIcon</styleUrl>
      <Point>
        <coordinates>27.70805,48.577251,0</coordinates>
      </Point>
    </Placemark>
    <Placemark>
      <name>Дворец (каменный) 1778 г.</name>
      <styleUrl>#monumentIcon</styleUrl>
      <Point>
        <coordinates>35.75581,49.9799,0</coordinates>
      </Point>
    </Placemark>
    <Placemark>
      <name>Дворец (каменный) 18-19 в.</name>
      <styleUrl>#monumentIcon</styleUrl>
      <Point>
        <coordinates>27.349829,48.949936,0</coordinates>
      </Point>
    </Placemark>
    <Placemark>
      <name>Дворец графа Ксидо (каменный),  1534-1915  г.</name>
      <styleUrl>#monumentIcon</styleUrl>
      <Point>
        <coordinates>27.946293,49.554985,0</coordinates>
      </Point>
    </Placemark>
    <Placemark>
      <name>Дворец Голицына (каменный) 19 в.</name>
      <styleUrl>#monumentIcon</styleUrl>
      <Point>
        <coordinates>34.958122,50.47261,0</coordinates>
      </Point>
    </Placemark>
    <Placemark>
      <name>Дворец (каменный) 19 в.</name>
      <styleUrl>#monumentIcon</styleUrl>
      <Point>
        <coordinates>27.249014,49.635902,0</coordinates>
      </Point>
    </Placemark>
    <Placemark>
      <name>Дворец (каменный) 20 в.</name>
      <styleUrl>#monumentIcon</styleUrl>
      <Point>
        <coordinates>27.701527,48.772804,0</coordinates>
      </Point>
    </Placemark>
    <Placemark>
      <name>Дворец (каменный) 19 в.</name>
      <styleUrl>#monumentIcon</styleUrl>
      <Point>
        <coordinates>24.467899,49.414959,0</coordinates>
      </Point>
    </Placemark>
    <Placemark>
      <name>Дворец (каменный) 19 в.</name>
      <styleUrl>#monumentIcon</styleUrl>
      <Point>
        <coordinates>35.957489,49.806683,0</coordinates>
      </Point>
    </Placemark>
    <Placemark>
      <name>Дворец (каменный)  19 в.</name>
      <styleUrl>#monumentIcon</styleUrl>
      <Point>
        <coordinates>29.153749,49.410789,0</coordinates>
      </Point>
    </Placemark>
    <Placemark>
      <name>Дворец 19 в.</name>
      <styleUrl>#monumentIcon</styleUrl>
      <Point>
        <coordinates>29.32136,49.123371</coordinates>
      </Point>
    </Placemark>
    <Placemark>
      <name>Дворец (каменный) 19 в.</name>
      <styleUrl>#monumentIcon</styleUrl>
      <Point>
        <coordinates>31.372492,48.9707789</coordinates>
      </Point>
    </Placemark>
    <Placemark>
      <name>Дворец (каменный) к.18 в.</name>
      <styleUrl>#monumentIcon</styleUrl>
      <Point>
        <coordinates>24.039951,51.227306,0</coordinates>
      </Point>
    </Placemark>
    <Placemark>
      <name>Дворец (каменный) 19 в.</name>
      <styleUrl>#monumentIcon</styleUrl>
      <Point>
        <coordinates>35.50359,49.664471,0</coordinates>
      </Point>
    </Placemark>
    <Placemark>
      <name>Дворец Ганских (каменный), 1780 г.</name>
      <styleUrl>#monumentIcon</styleUrl>
      <Point>
        <coordinates>29.297256,49.758301,0</coordinates>
      </Point>
    </Placemark>
    <Placemark>
      <name>Дворец (каменный) 20 в.</name>
      <styleUrl>#monumentIcon</styleUrl>
      <Point>
        <coordinates>28.71851,49.394749,0</coordinates>
      </Point>
    </Placemark>
    <Placemark>
      <name>Дворец (каменный), 1805 г.</name>
      <styleUrl>#monumentIcon</styleUrl>
      <Point>
        <coordinates>27.523991,48.724205</coordinates>
      </Point>
    </Placemark>
    <Placemark>
      <name>Дворец Витославского-Львова (каменный) 17-19 в.</name>
      <styleUrl>#monumentIcon</styleUrl>
      <Point>
        <coordinates>27.947193,49.047798,0</coordinates>
      </Point>
    </Placemark>
    <Placemark>
      <name>Дворец (Под лебедем) (каменный) 1763 г.</name>
      <styleUrl>#monumentIcon</styleUrl>
      <Point>
        <coordinates>24.032499,49.83923,0</coordinates>
      </Point>
    </Placemark>
    <Placemark>
      <name>Дворец 16 в.</name>
      <styleUrl>#monumentIcon</styleUrl>
      <Point>
        <coordinates>25.732443,50.144218,0</coordinates>
      </Point>
    </Placemark>
    <Placemark>
      <name>Дворец барона Перени (17 век)</name>
      <styleUrl>#monumentIcon</styleUrl>
      <Point>
        <coordinates>23.0441,48.1384699</coordinates>
      </Point>
    </Placemark>
    <Placemark>
      <name>Дворец баронов Грьодлей (каменный) 19 в.</name>
      <styleUrl>#monumentIcon</styleUrl>
      <Point>
        <coordinates>23.492416,49.02467,0</coordinates>
      </Point>
    </Placemark>
    <Placemark>
      <name>Дворец адмирала Абази (каменный) 1858 г.</name>
      <styleUrl>#monumentIcon</styleUrl>
      <Point>
        <coordinates>30.74317,46.482891,0</coordinates>
      </Point>
    </Placemark>
    <Placemark>
      <name>Дворец Браницьких (развалины), конец 18-19 в.</name>
      <styleUrl>#monumentIcon</styleUrl>
      <Point>
        <coordinates>29.711868,49.499668,0</coordinates>
      </Point>
    </Placemark>
    <Placemark>
      <name>Дворец Вишневецких 1640-1720 г.</name>
      <styleUrl>#monumentIcon</styleUrl>
      <Point>
        <coordinates>25.739094,49.899162,0</coordinates>
      </Point>
    </Placemark>
    <Placemark>
      <name>Дворец и парк 19 в.</name>
      <styleUrl>#monumentIcon</styleUrl>
      <Point>
        <coordinates>29.26021,48.399151,0</coordinates>
      </Point>
    </Placemark>
    <Placemark>
      <name>Дом архитектора Нильсена</name>
      <styleUrl>#monumentIcon</styleUrl>
      <Point>
        <coordinates>37.545357,47.091843,0</coordinates>
      </Point>
    </Placemark>
    <Placemark>
      <name>Дворец Гагарина (каменный) 1842-1850 гг.</name>
      <styleUrl>#monumentIcon</styleUrl>
      <Point>
        <coordinates>30.744741,46.485001,0</coordinates>
      </Point>
    </Placemark>
    <Placemark>
      <name>Дворец Воронцова, 1826 г.</name>
      <styleUrl>#monumentIcon</styleUrl>
      <Point>
        <coordinates>34.140289,44.923962,0</coordinates>
      </Point>
    </Placemark>
    <Placemark>
      <name>Дворец Воронцова (каменный) 1824-1878 гг.</name>
      <styleUrl>#monumentIcon</styleUrl>
      <Point>
        <coordinates>34.055805,44.419823,0</coordinates>
      </Point>
    </Placemark>
    <Placemark>
      <name>Дворец Воронцова</name>
      <styleUrl>#monumentIcon</styleUrl>
      <Point>
        <coordinates>34.130127,44.942127,0</coordinates>
      </Point>
    </Placemark>
    <Placemark>
      <name>Дворец Зота (каменный) 1809 г.</name>
      <styleUrl>#monumentIcon</styleUrl>
      <Point>
        <coordinates>25.969877,48.5723269</coordinates>
      </Point>
    </Placemark>
    <Placemark>
      <name>Дворец Гагарина (каменный) 1907 гг.</name>
      <styleUrl>#monumentIcon</styleUrl>
      <Point>
        <coordinates>34.369843,44.592667,0</coordinates>
      </Point>
    </Placemark>
    <Placemark>
      <name>Дворец Лопухиных (каменный), 1787 гг.</name>
      <styleUrl>#monumentIcon</styleUrl>
      <Point>
        <coordinates>31.266144,49.415154,0</coordinates>
      </Point>
    </Placemark>
    <Placemark>
      <name>Дворец Голицина (каменный) 1836 гг.</name>
      <styleUrl>#monumentIcon</styleUrl>
      <Point>
        <coordinates>34.098618,44.435139,0</coordinates>
      </Point>
    </Placemark>
    <Placemark>
      <name>Дворец Горчинских (каменный) 18 в.</name>
      <styleUrl>#monumentIcon</styleUrl>
      <Point>
        <coordinates>27.166698,50.618298,0</coordinates>
      </Point>
    </Placemark>
    <Placemark>
      <name>Дворец Галаганов (дер) 1831 гг.</name>
      <styleUrl>#monumentIcon</styleUrl>
      <Point>
        <coordinates>32.768719,50.695187,0</coordinates>
      </Point>
    </Placemark>
    <Placemark>
      <name>Дворец графа Чорномина (каменный), 19 в.</name>
      <styleUrl>#monumentIcon</styleUrl>
      <Point>
        <coordinates>29.011578,48.218731,0</coordinates>
      </Point>
    </Placemark>
    <Placemark>
      <name>Дворец Грохольских (каменный) 18 в.</name>
      <styleUrl>#monumentIcon</styleUrl>
      <Point>
        <coordinates>28.460917,49.2481,0</coordinates>
      </Point>
    </Placemark>
    <Placemark>
      <name>Дворец Дюльбер (каменный) 1897 г.</name>
      <styleUrl>#monumentIcon</styleUrl>
      <Point>
        <coordinates>34.09613,44.429462,0</coordinates>
      </Point>
    </Placemark>
    <Placemark>
      <name>Дворец Ивана Куриса (каменный)</name>
      <styleUrl>#monumentIcon</styleUrl>
      <Point>
        <coordinates>30.720024,46.908787,0</coordinates>
      </Point>
    </Placemark>
    <Placemark>
      <name>Дворец семьи Закревских, 18-19 в.</name>
      <styleUrl>#monumentIcon</styleUrl>
      <Point>
        <coordinates>32.248158,50.316593,0</coordinates>
      </Point>
    </Placemark>
    <Placemark>
      <name>Дворец князя Габора Бетлена (каменный) 1629-1857 гг.</name>
      <styleUrl>#monumentIcon</styleUrl>
      <Point>
        <coordinates>22.647984,48.205399,0</coordinates>
      </Point>
    </Placemark>
    <Placemark>
      <name>Дворец Кирилла Розумовского 1803 г.</name>
      <styleUrl>#monumentIcon</styleUrl>
      <Point>
        <coordinates>32.891953,51.334129,0</coordinates>
      </Point>
    </Placemark>
    <Placemark>
      <name>Дворец графа Шидловского (каменный) 1830 г.</name>
      <styleUrl>#monumentIcon</styleUrl>
      <Point>
        <coordinates>30.741489,46.487659,0</coordinates>
      </Point>
    </Placemark>
    <Placemark>
      <name>Дворец Муравьевых-Апостолов (каменный) к.18 в.</name>
      <styleUrl>#monumentIcon</styleUrl>
      <Point>
        <coordinates>33.714916,50.047466,0</coordinates>
      </Point>
    </Placemark>
    <Placemark>
      <name>Дворец княгини Львовой (каменный) 1745-1783 гг.</name>
      <styleUrl>#monumentIcon</styleUrl>
      <Point>
        <coordinates>33.410931,51.300129,0</coordinates>
      </Point>
    </Placemark>
    <Placemark>
      <name>Дворец Кичкинэ 1913</name>
      <styleUrl>#monumentIcon</styleUrl>
      <Point>
        <coordinates>34.130405,44.437702,0</coordinates>
      </Point>
    </Placemark>
    <Placemark>
      <name>Дворец Потоцких (каменный) 1757 г.</name>
      <styleUrl>#monumentIcon</styleUrl>
      <Point>
        <coordinates>28.858366,48.675316,0</coordinates>
      </Point>
    </Placemark>
    <Placemark>
      <name>Дворец львовских архиепископов (каменный) 1730 г.</name>
      <styleUrl>#monumentIcon</styleUrl>
      <Point>
        <coordinates>23.8685,49.785160</coordinates>
      </Point>
    </Placemark>
    <Placemark>
      <name>Дворец Потоцких</name>
      <styleUrl>#monumentIcon</styleUrl>
      <Point>
        <coordinates>24.236513,50.3821409</coordinates>
      </Point>
    </Placemark>
    <Placemark>
      <name>Дворец работника (каменный) 1932 г.</name>
      <styleUrl>#monumentIcon</styleUrl>
      <Point>
        <coordinates>36.203819,49.99831,0</coordinates>
      </Point>
    </Placemark>
    <Placemark>
      <name>Дворец Ланге (каменный) 18-19 в.</name>
      <styleUrl>#monumentIcon</styleUrl>
      <Point>
        <coordinates>29.1255,49.27108,0</coordinates>
      </Point>
    </Placemark>
    <Placemark>
      <name>Дворец Потоцких (каменный), 1760 г.</name>
      <styleUrl>#monumentIcon</styleUrl>
      <Point>
        <coordinates>25.606684,49.397518</coordinates>
      </Point>
    </Placemark>
    <Placemark>
      <name>Дворец Терещенко (руины), 20 в.</name>
      <styleUrl>#monumentIcon</styleUrl>
      <Point>
        <coordinates>28.411915,50.205311,0</coordinates>
      </Point>
    </Placemark>
    <Placemark>
      <name>Дворец Плотени</name>
      <styleUrl>#monumentIcon</styleUrl>
      <Point>
        <coordinates>22.381021,48.559074,0</coordinates>
      </Point>
    </Placemark>
    <Placemark>
      <name>Дворец Потоцкого (каменный) 1880 г.</name>
      <styleUrl>#monumentIcon</styleUrl>
      <Point>
        <coordinates>24.026632,49.838184,0</coordinates>
      </Point>
    </Placemark>
    <Placemark>
      <name>Дворец Потоцких, 1672-82 гг.</name>
      <styleUrl>#monumentIcon</styleUrl>
      <Point>
        <coordinates>24.713352,48.924618,0</coordinates>
      </Point>
    </Placemark>
    <Placemark>
      <name>Дворец Попова (каменный) 1894 г.</name>
      <styleUrl>#monumentIcon</styleUrl>
      <Point>
        <coordinates>35.276508,47.446579,0</coordinates>
      </Point>
    </Placemark>
    <Placemark>
      <name>Дворец Потоцких (каменный) 1887 г.</name>
      <styleUrl>#monumentIcon</styleUrl>
      <Point>
        <coordinates>29.43713,49.001656,0</coordinates>
      </Point>
    </Placemark>
    <Placemark>
      <name>Дворец Потоцкого (каменный) 1810, 1828 гг.</name>
      <styleUrl>#monumentIcon</styleUrl>
      <Point>
        <coordinates>30.728546,46.493336,0</coordinates>
      </Point>
    </Placemark>
    <Placemark>
      <name>Дворец Фальц-Фейна (развалины) 1780 г.</name>
      <styleUrl>#monumentIcon</styleUrl>
      <Point>
        <coordinates>33.905293,47.238914,0</coordinates>
      </Point>
    </Placemark>
    <Placemark>
      <name>Дворец Румянцева-Задунайского (каменный) 1787 г.</name>
      <styleUrl>#monumentIcon</styleUrl>
      <Point>
        <coordinates>33.065228,51.643158,0</coordinates>
      </Point>
    </Placemark>
    <Placemark>
      <name>Дворец Терещенко 20 в.</name>
      <styleUrl>#monumentIcon</styleUrl>
      <Point>
        <coordinates>28.881598,49.959274,0</coordinates>
      </Point>
    </Placemark>
    <Placemark>
      <name>Дворец Терещенка 19 в.</name>
      <styleUrl>#monumentIcon</styleUrl>
      <Point>
        <coordinates>29.022959,50.01577,0</coordinates>
      </Point>
    </Placemark>
    <Placemark>
      <name>Дворец Тарновских (каменный), 18-19 в.</name>
      <styleUrl>#monumentIcon</styleUrl>
      <Point>
        <coordinates>32.657444,50.836864,0</coordinates>
      </Point>
    </Placemark>
    <Placemark>
      <name>Дворец Собанских, конец 19 в.</name>
      <styleUrl>#monumentIcon</styleUrl>
      <Point>
        <coordinates>29.160521,48.441898,0</coordinates>
      </Point>
    </Placemark>
    <Placemark>
      <name>Дворец Трубецкого (руины) 1885 г.</name>
      <styleUrl>#monumentIcon</styleUrl>
      <Point>
        <coordinates>33.350761,46.784622,0</coordinates>
      </Point>
    </Placemark>
    <Placemark>
      <name>Дворец Уваровой (каменный), 1900 г.</name>
      <styleUrl>#monumentIcon</styleUrl>
      <Point>
        <coordinates>28.264069,50.028858</coordinates>
      </Point>
    </Placemark>
    <Placemark>
      <name>Дворец Четвертинских (каменный) 1830  г.</name>
      <styleUrl>#monumentIcon</styleUrl>
      <Point>
        <coordinates>28.615194,48.534313,0</coordinates>
      </Point>
    </Placemark>
    <Placemark>
      <name>Дворцово-парковий ансамбль, конец 19 в.</name>
      <styleUrl>#monumentIcon</styleUrl>
      <Point>
        <coordinates>34.904358,51.0697749</coordinates>
      </Point>
    </Placemark>
    <Placemark>
      <name>Дворец Щербатовой (каменный), 1894 г.</name>
      <styleUrl>#monumentIcon</styleUrl>
      <Point>
        <coordinates>28.842543,48.967693,0</coordinates>
      </Point>
    </Placemark>
    <Placemark>
      <name>Дворец, 1780 г.</name>
      <styleUrl>#monumentIcon</styleUrl>
      <Point>
        <coordinates>28.689474,49.111618,0</coordinates>
      </Point>
    </Placemark>
    <Placemark>
      <name>Дворец, Парк 19 в.</name>
      <styleUrl>#monumentIcon</styleUrl>
      <Point>
        <coordinates>27.393232,49.766788,0</coordinates>
      </Point>
    </Placemark>
    <Placemark>
      <name>Дворец, 18-19 в.</name>
      <styleUrl>#monumentIcon</styleUrl>
      <Point>
        <coordinates>28.68014,48.470287,0</coordinates>
      </Point>
    </Placemark>
    <Placemark>
      <name>Дворец Эмира 1903 г.</name>
      <styleUrl>#monumentIcon</styleUrl>
      <Point>
        <coordinates>34.158024,44.486832,0</coordinates>
      </Point>
    </Placemark>
    <Placemark>
      <name>Дворец, 18 в.</name>
      <styleUrl>#monumentIcon</styleUrl>
      <Point>
        <coordinates>27.7075,50.0280989</coordinates>
      </Point>
    </Placemark>
    <Placemark>
      <name>Дворцово-парковий ансамбль 19 в.</name>
      <styleUrl>#monumentIcon</styleUrl>
      <Point>
        <coordinates>35.432865,50.043827</coordinates>
      </Point>
    </Placemark>
    <Placemark>
      <name>Дом Волкова</name>
      <styleUrl>#monumentIcon</styleUrl>
      <Point>
        <coordinates>30.610556,50.352779,0</coordinates>
      </Point>
    </Placemark>
    <Placemark>
      <name>Дворец 19 в.</name>
      <styleUrl>#monumentIcon</styleUrl>
      <Point>
        <coordinates>26.983561,48.99453,0</coordinates>
      </Point>
    </Placemark>
    <Placemark>
      <name>Дворцовый корпус (каменный) 1848 г.</name>
      <styleUrl>#monumentIcon</styleUrl>
      <Point>
        <coordinates>32.259018,48.514069</coordinates>
      </Point>
    </Placemark>
    <Placemark>
      <name>Дворянское собрание (каменный) 1912 г.</name>
      <styleUrl>#monumentIcon</styleUrl>
      <Point>
        <coordinates>35.183315,47.813408,0</coordinates>
      </Point>
    </Placemark>
    <Placemark>
      <name>Дворянское собрание (каменный) 1810 г.</name>
      <styleUrl>#monumentIcon</styleUrl>
      <Point>
        <coordinates>34.55254,49.5882759</coordinates>
      </Point>
    </Placemark>
    <Placemark>
      <name>Дом 1846 г.</name>
      <styleUrl>#monumentIcon</styleUrl>
      <Point>
        <coordinates>30.741711,46.477577,0</coordinates>
      </Point>
    </Placemark>
    <Placemark>
      <name>Жилой дом 1820 г.</name>
      <styleUrl>#monumentIcon</styleUrl>
      <Point>
        <coordinates>30.742285,46.486668,0</coordinates>
      </Point>
    </Placemark>
    <Placemark>
      <name>Дом</name>
      <styleUrl>#monumentIcon</styleUrl>
      <Point>
        <coordinates>30.482782,50.457458,0</coordinates>
      </Point>
    </Placemark>
    <Placemark>
      <name>Государственный банк (каменный), начало 20 в.</name>
      <styleUrl>#monumentIcon</styleUrl>
      <Point>
        <coordinates>34.798779,50.906158,0</coordinates>
      </Point>
    </Placemark>
    <Placemark>
      <name>Дом 1830-32</name>
      <styleUrl>#monumentIcon</styleUrl>
      <Point>
        <coordinates>30.725491,46.474903,0</coordinates>
      </Point>
    </Placemark>
    <Placemark>
      <name>Дом 1891 г.</name>
      <styleUrl>#monumentIcon</styleUrl>
      <Point>
        <coordinates>30.736197,46.471294,0</coordinates>
      </Point>
    </Placemark>
    <Placemark>
      <name>Дом 1830-е</name>
      <styleUrl>#monumentIcon</styleUrl>
      <Point>
        <coordinates>30.735676,46.4782369</coordinates>
      </Point>
    </Placemark>
    <Placemark>
      <name>Дом 1909 г.</name>
      <styleUrl>#monumentIcon</styleUrl>
      <Point>
        <coordinates>30.730597,46.481548,0</coordinates>
      </Point>
    </Placemark>
    <Placemark>
      <name>Дом 1880 г.</name>
      <styleUrl>#monumentIcon</styleUrl>
      <Point>
        <coordinates>30.7314,46.490646</coordinates>
      </Point>
    </Placemark>
    <Placemark>
      <name>Дом 1902</name>
      <styleUrl>#monumentIcon</styleUrl>
      <Point>
        <coordinates>30.720329,46.479210</coordinates>
      </Point>
    </Placemark>
    <Placemark>
      <name>Дом 1913 г.</name>
      <styleUrl>#monumentIcon</styleUrl>
      <Point>
        <coordinates>30.731218,46.473045</coordinates>
      </Point>
    </Placemark>
    <Placemark>
      <name>Дом А. Вассала 1887 г.</name>
      <styleUrl>#monumentIcon</styleUrl>
      <Point>
        <coordinates>30.729628,46.485996,0</coordinates>
      </Point>
    </Placemark>
    <Placemark>
      <name>Дом Александра Беретти</name>
      <styleUrl>#monumentIcon</styleUrl>
      <Point>
        <coordinates>30.515394,50.450062</coordinates>
      </Point>
    </Placemark>
    <Placemark>
      <name>Дом барона Гильденбранда, 1901 г.</name>
      <styleUrl>#monumentIcon</styleUrl>
      <Point>
        <coordinates>30.531187,50.443027,0</coordinates>
      </Point>
    </Placemark>
    <Placemark>
      <name>Дом архиерея (каменный) 19 в.</name>
      <styleUrl>#monumentIcon</styleUrl>
      <Point>
        <coordinates>29.582579,48.780899,0</coordinates>
      </Point>
    </Placemark>
    <Placemark>
      <name>Дом Абрамсона, 1852 г.</name>
      <styleUrl>#monumentIcon</styleUrl>
      <Point>
        <coordinates>30.741592,46.480797,0</coordinates>
      </Point>
    </Placemark>
    <Placemark>
      <name>Дом адмирала Лазарева</name>
      <styleUrl>#monumentIcon</styleUrl>
      <Point>
        <coordinates>33.509861,44.5051,0</coordinates>
      </Point>
    </Placemark>
    <Placemark>
      <name>Дом Академии Наук Украины (каменный) 1914-1927 гг.</name>
      <styleUrl>#monumentIcon</styleUrl>
      <Point>
        <coordinates>30.513481,50.445702,0</coordinates>
      </Point>
    </Placemark>
    <Placemark>
      <name>Дом Английского клуба (каменный) 1841 г.</name>
      <styleUrl>#monumentIcon</styleUrl>
      <Point>
        <coordinates>30.742794,46.485107,0</coordinates>
      </Point>
    </Placemark>
    <Placemark>
      <name>Дом Английского клуба (каменный) 1870 г.</name>
      <styleUrl>#monumentIcon</styleUrl>
      <Point>
        <coordinates>35.043495,48.468723,0</coordinates>
      </Point>
    </Placemark>
    <Placemark>
      <name>Дом Барабаша 19 в.</name>
      <styleUrl>#monumentIcon</styleUrl>
      <Point>
        <coordinates>30.738661,46.472897,0</coordinates>
      </Point>
    </Placemark>
    <Placemark>
      <name>Дом археологического музея (каменный) 1882-1883 гг.</name>
      <styleUrl>#monumentIcon</styleUrl>
      <Point>
        <coordinates>30.743874,46.4848819</coordinates>
      </Point>
    </Placemark>
    <Placemark>
      <name>Дом Балабухи (каменный) 18-19 в.</name>
      <styleUrl>#monumentIcon</styleUrl>
      <Point>
        <coordinates>30.521441,50.460732,0</coordinates>
      </Point>
    </Placemark>
    <Placemark>
      <name>Дом архитектора Мааса 1875 г.</name>
      <styleUrl>#monumentIcon</styleUrl>
      <Point>
        <coordinates>30.728704,46.486458,0</coordinates>
      </Point>
    </Placemark>
    <Placemark>
      <name>Дом Барского, 1819 г.</name>
      <styleUrl>#monumentIcon</styleUrl>
      <Point>
        <coordinates>30.744896,46.464352,0</coordinates>
      </Point>
    </Placemark>
    <Placemark>
      <name>Дом барона Рудольфа Штейнгеля (каменный), конец 19 в.</name>
      <styleUrl>#monumentIcon</styleUrl>
      <Point>
        <coordinates>30.499874,50.451466</coordinates>
      </Point>
    </Placemark>
    <Placemark>
      <name>Дом барона Максима Штейнгеля</name>
      <styleUrl>#monumentIcon</styleUrl>
      <Point>
        <coordinates>30.511868,50.449398,0</coordinates>
      </Point>
    </Placemark>
    <Placemark>
      <name>Дом барона Подгорского</name>
      <styleUrl>#monumentIcon</styleUrl>
      <Point>
        <coordinates>30.512035,50.449257</coordinates>
      </Point>
    </Placemark>
    <Placemark>
      <name>Дом Барского (каменный) 1885-1905 гг.</name>
      <styleUrl>#monumentIcon</styleUrl>
      <Point>
        <coordinates>32.269337,48.509811,0</coordinates>
      </Point>
    </Placemark>
    <Placemark>
      <name>Дом биржы 1873 г.</name>
      <styleUrl>#monumentIcon</styleUrl>
      <Point>
        <coordinates>30.529902,50.447735</coordinates>
      </Point>
    </Placemark>
    <Placemark>
      <name>Дом доктора Гампера</name>
      <styleUrl>#monumentIcon</styleUrl>
      <Point>
        <coordinates>37.559864,47.09063,0</coordinates>
      </Point>
    </Placemark>
    <Placemark>
      <name>Дом Боффо (каменный) 1844 г.</name>
      <styleUrl>#monumentIcon</styleUrl>
      <Point>
        <coordinates>30.74159,46.48584,0</coordinates>
      </Point>
    </Placemark>
    <Placemark>
      <name>Дом Бонифаци, 1906 г.</name>
      <styleUrl>#monumentIcon</styleUrl>
      <Point>
        <coordinates>30.739353,46.4861789</coordinates>
      </Point>
    </Placemark>
    <Placemark>
      <name>Дом в форме сердца</name>
      <styleUrl>#monumentIcon</styleUrl>
      <Point>
        <coordinates>28.659155,50.258266,0</coordinates>
      </Point>
    </Placemark>
    <Placemark>
      <name>Дом Виктора Медведчука</name>
      <styleUrl>#monumentIcon</styleUrl>
      <Point>
        <coordinates>30.461111,50.545555,0</coordinates>
      </Point>
    </Placemark>
    <Placemark>
      <name>Дом Гагарина</name>
      <styleUrl>#monumentIcon</styleUrl>
      <Point>
        <coordinates>30.738552,46.487354,0</coordinates>
      </Point>
    </Placemark>
    <Placemark>
      <name>Дом Владислава Городецкого (каменный) 1903 г.</name>
      <styleUrl>#monumentIcon</styleUrl>
      <Point>
        <coordinates>30.528788,50.445004,0</coordinates>
      </Point>
    </Placemark>
    <Placemark>
      <name>Дом Бурназо 1870 г.</name>
      <styleUrl>#monumentIcon</styleUrl>
      <Point>
        <coordinates>30.735271,46.49004,0</coordinates>
      </Point>
    </Placemark>
    <Placemark>
      <name>Дом Вальтухат, 1878 г.</name>
      <styleUrl>#monumentIcon</styleUrl>
      <Point>
        <coordinates>30.735298,46.48962,0</coordinates>
      </Point>
    </Placemark>
    <Placemark>
      <name>Дом Наврожина. 1899-1900 гг.</name>
      <styleUrl>#monumentIcon</styleUrl>
      <Point>
        <coordinates>30.730001,46.485699,0</coordinates>
      </Point>
    </Placemark>
    <Placemark>
      <name>Дом вице-адмирала Сенявина (каменный) к. 18 в.</name>
      <styleUrl>#monumentIcon</styleUrl>
      <Point>
        <coordinates>32.60577,46.631138,0</coordinates>
      </Point>
    </Placemark>
    <Placemark>
      <name>Дом Григория Маразли, 1835</name>
      <styleUrl>#monumentIcon</styleUrl>
      <Point>
        <coordinates>30.742729,46.48465,0</coordinates>
      </Point>
    </Placemark>
    <Placemark>
      <name>Дом Васалля, 1893 г.</name>
      <styleUrl>#monumentIcon</styleUrl>
      <Point>
        <coordinates>30.735668,46.487408,0</coordinates>
      </Point>
    </Placemark>
    <Placemark>
      <name>Дом генерал-губернатора (каменный) 1810 г.</name>
      <styleUrl>#monumentIcon</styleUrl>
      <Point>
        <coordinates>34.553432,49.590466,0</coordinates>
      </Point>
    </Placemark>
    <Placemark>
      <name>Дом Кроля (каменный) 1901 г.</name>
      <styleUrl>#monumentIcon</styleUrl>
      <Point>
        <coordinates>37.805824,47.992443,0</coordinates>
      </Point>
    </Placemark>
    <Placemark>
      <name>Дом генерал-губернатора</name>
      <styleUrl>#monumentIcon</styleUrl>
      <Point>
        <coordinates>30.557673,50.432247,0</coordinates>
      </Point>
    </Placemark>
    <Placemark>
      <name>Дом Государственного банка (каменный) 1905 г. 1934 г.</name>
      <styleUrl>#monumentIcon</styleUrl>
      <Point>
        <coordinates>30.531685,50.446991,0</coordinates>
      </Point>
    </Placemark>
    <Placemark>
      <name>Дом городской управы (каменный) 1901 г.</name>
      <styleUrl>#monumentIcon</styleUrl>
      <Point>
        <coordinates>35.051208,48.461334,0</coordinates>
      </Point>
    </Placemark>
    <Placemark>
      <name>Дом губернского земства (каменный) 1905 г.</name>
      <styleUrl>#monumentIcon</styleUrl>
      <Point>
        <coordinates>34.552792,49.5867,0</coordinates>
      </Point>
    </Placemark>
    <Placemark>
      <name>Дом Григорьевой, 1912</name>
      <styleUrl>#monumentIcon</styleUrl>
      <Point>
        <coordinates>30.739264,46.484928,0</coordinates>
      </Point>
    </Placemark>
    <Placemark>
      <name>Дом Госпрома (каменный) 1928 г.</name>
      <styleUrl>#monumentIcon</styleUrl>
      <Point>
        <coordinates>36.227409,50.006657,0</coordinates>
      </Point>
    </Placemark>
    <Placemark>
      <name>Дом дворянского училища (каменный) 1820-і гг.</name>
      <styleUrl>#monumentIcon</styleUrl>
      <Point>
        <coordinates>30.514366,50.465267,0</coordinates>
      </Point>
    </Placemark>
    <Placemark>
      <name>Дом Григоровича, 1860 г.</name>
      <styleUrl>#monumentIcon</styleUrl>
      <Point>
        <coordinates>30.73284,46.485020</coordinates>
      </Point>
    </Placemark>
    <Placemark>
      <name>Дом Дурьяна, конец 19 в.</name>
      <styleUrl>#monumentIcon</styleUrl>
      <Point>
        <coordinates>30.732527,46.486198,0</coordinates>
      </Point>
    </Placemark>
    <Placemark>
      <name>Дом губернатора (каменный) 1830 г.</name>
      <styleUrl>#monumentIcon</styleUrl>
      <Point>
        <coordinates>35.041237,48.466579,0</coordinates>
      </Point>
    </Placemark>
    <Placemark>
      <name>Дом Джона Юза (каменный) 1901 г (разв)</name>
      <styleUrl>#monumentIcon</styleUrl>
      <Point>
        <coordinates>37.814182,47.971996,0</coordinates>
      </Point>
    </Placemark>
    <Placemark>
      <name>Дом де Рибаса, 1796</name>
      <styleUrl>#monumentIcon</styleUrl>
      <Point>
        <coordinates>30.733309,46.484631,0</coordinates>
      </Point>
    </Placemark>
    <Placemark>
      <name>Дом купеческого собрания (каменный) 1882 г.</name>
      <styleUrl>#monumentIcon</styleUrl>
      <Point>
        <coordinates>30.528065,50.453148,0</coordinates>
      </Point>
    </Placemark>
    <Placemark>
      <name>Дом Екатерины Соломос 1913 г.</name>
      <styleUrl>#monumentIcon</styleUrl>
      <Point>
        <coordinates>30.733713,46.490547</coordinates>
      </Point>
    </Placemark>
    <Placemark>
      <name>Дом доктора Качковского (каменный) 1907 г.</name>
      <styleUrl>#monumentIcon</styleUrl>
      <Point>
        <coordinates>30.507763,50.451591,0</coordinates>
      </Point>
    </Placemark>
    <Placemark>
      <name>Дом Дьякова</name>
      <styleUrl>#monumentIcon</styleUrl>
      <Point>
        <coordinates>30.526871,50.44561,0</coordinates>
      </Point>
    </Placemark>
    <Placemark>
      <name>Дом Ивана Сикорского</name>
      <styleUrl>#monumentIcon</styleUrl>
      <Point>
        <coordinates>30.509483,50.451153,0</coordinates>
      </Point>
    </Placemark>
    <Placemark>
      <name>Дом Евгения Гагарина, 1903 г.</name>
      <styleUrl>#monumentIcon</styleUrl>
      <Point>
        <coordinates>30.738926,46.487003,0</coordinates>
      </Point>
    </Placemark>
    <Placemark>
      <name>Дом Жюльена, 1842</name>
      <styleUrl>#monumentIcon</styleUrl>
      <Point>
        <coordinates>30.737951,46.484005,0</coordinates>
      </Point>
    </Placemark>
    <Placemark>
      <name>Дом Ждановой 1910 г.</name>
      <styleUrl>#monumentIcon</styleUrl>
      <Point>
        <coordinates>30.738333,46.487778</coordinates>
      </Point>
    </Placemark>
    <Placemark>
      <name>Дом Жиранцова 1862 г.</name>
      <styleUrl>#monumentIcon</styleUrl>
      <Point>
        <coordinates>30.727221,46.4868849</coordinates>
      </Point>
    </Placemark>
    <Placemark>
      <name>Дом Роглера 1912 г.</name>
      <styleUrl>#monumentIcon</styleUrl>
      <Point>
        <coordinates>30.72381,46.491642,0</coordinates>
      </Point>
    </Placemark>
    <Placemark>
      <name>Дом земской больницы (каменный) 1847г.</name>
      <styleUrl>#monumentIcon</styleUrl>
      <Point>
        <coordinates>35.067322,48.455669,0</coordinates>
      </Point>
    </Placemark>
    <Placemark>
      <name>Дом Инбера, конец 19 в.</name>
      <styleUrl>#monumentIcon</styleUrl>
      <Point>
        <coordinates>30.73258,46.486942,0</coordinates>
      </Point>
    </Placemark>
    <Placemark>
      <name>Дом Ивана Мазепы (каменный) 18-19 в.</name>
      <styleUrl>#monumentIcon</styleUrl>
      <Point>
        <coordinates>30.520515,50.467098,0</coordinates>
      </Point>
    </Placemark>
    <Placemark>
      <name>Дом Петра I (каменный) 17-19 в.</name>
      <styleUrl>#monumentIcon</styleUrl>
      <Point>
        <coordinates>25.322874,50.745693,0</coordinates>
      </Point>
    </Placemark>
    <Placemark>
      <name>Дом Клейна 1905 г.</name>
      <styleUrl>#monumentIcon</styleUrl>
      <Point>
        <coordinates>30.755293,46.471268</coordinates>
      </Point>
    </Placemark>
    <Placemark>
      <name>Дом Ковалевского (каменный) 1913 г.</name>
      <styleUrl>#monumentIcon</styleUrl>
      <Point>
        <coordinates>30.531956,50.443436,0</coordinates>
      </Point>
    </Placemark>
    <Placemark>
      <name>Дом Караимского общества, 1848</name>
      <styleUrl>#monumentIcon</styleUrl>
      <Point>
        <coordinates>30.741095,46.4736819</coordinates>
      </Point>
    </Placemark>
    <Placemark>
      <name>Дом командующего военным округом, 1914 г.</name>
      <styleUrl>#monumentIcon</styleUrl>
      <Point>
        <coordinates>30.541174,50.444401,0</coordinates>
      </Point>
    </Placemark>
    <Placemark>
      <name>Дом Константиновского 1901</name>
      <styleUrl>#monumentIcon</styleUrl>
      <Point>
        <coordinates>30.741028,46.473019,0</coordinates>
      </Point>
    </Placemark>
    <Placemark>
      <name>Дом купца Горелика (каменный) 1905 г.</name>
      <styleUrl>#monumentIcon</styleUrl>
      <Point>
        <coordinates>37.799568,47.992981,0</coordinates>
      </Point>
    </Placemark>
    <Placemark>
      <name>Доходный дом Машевского, 1903 г.</name>
      <styleUrl>#monumentIcon</styleUrl>
      <Point>
        <coordinates>30.733301,46.487553,0</coordinates>
      </Point>
    </Placemark>
    <Placemark>
      <name>Дом Хренникова 1912 г.</name>
      <styleUrl>#monumentIcon</styleUrl>
      <Point>
        <coordinates>35.043884,48.465294,0</coordinates>
      </Point>
    </Placemark>
    <Placemark>
      <name>Дом Л. Ц. Оттона 1810 г.</name>
      <styleUrl>#monumentIcon</styleUrl>
      <Point>
        <coordinates>30.735291,46.4892499</coordinates>
      </Point>
    </Placemark>
    <Placemark>
      <name>Дом Кочубея (каменный) 17-18 в.</name>
      <styleUrl>#monumentIcon</styleUrl>
      <Point>
        <coordinates>32.918221,51.136791,0</coordinates>
      </Point>
    </Placemark>
    <Placemark>
      <name>Дом общественного собрания (каменный) 1912 г.</name>
      <styleUrl>#monumentIcon</styleUrl>
      <Point>
        <coordinates>35.042831,48.468037,0</coordinates>
      </Point>
    </Placemark>
    <Placemark>
      <name>Дом Лилии Бродской, 1881 г.</name>
      <styleUrl>#monumentIcon</styleUrl>
      <Point>
        <coordinates>30.73303,46.489872,0</coordinates>
      </Point>
    </Placemark>
    <Placemark>
      <name>Дом Наума, начало 20 в.</name>
      <styleUrl>#monumentIcon</styleUrl>
      <Point>
        <coordinates>30.737516,46.489292,0</coordinates>
      </Point>
    </Placemark>
    <Placemark>
      <name>Дом Лифшица 1910 г.</name>
      <styleUrl>#monumentIcon</styleUrl>
      <Point>
        <coordinates>30.731848,46.477562,0</coordinates>
      </Point>
    </Placemark>
    <Placemark>
      <name>Дом Кочубея 17-19 в.</name>
      <styleUrl>#monumentIcon</styleUrl>
      <Point>
        <coordinates>32.878967,51.336937,0</coordinates>
      </Point>
    </Placemark>
    <Placemark>
      <name>Дом Николая Раевского</name>
      <styleUrl>#monumentIcon</styleUrl>
      <Point>
        <coordinates>30.535395,50.447453,0</coordinates>
      </Point>
    </Placemark>
    <Placemark>
      <name>Дом Лидерса (каменный) 1830 г.</name>
      <styleUrl>#monumentIcon</styleUrl>
      <Point>
        <coordinates>30.743696,46.484688,0</coordinates>
      </Point>
    </Placemark>
    <Placemark>
      <name>Дом Либмана 1888 г.</name>
      <styleUrl>#monumentIcon</styleUrl>
      <Point>
        <coordinates>30.732334,46.484879,0</coordinates>
      </Point>
    </Placemark>
    <Placemark>
      <name>Дом Навроцкого, 1891 г.</name>
      <styleUrl>#monumentIcon</styleUrl>
      <Point>
        <coordinates>30.740469,46.485100</coordinates>
      </Point>
    </Placemark>
    <Placemark>
      <name>Дом Толстого 1880 г.</name>
      <styleUrl>#monumentIcon</styleUrl>
      <Point>
        <coordinates>30.735704,46.488274,0</coordinates>
      </Point>
    </Placemark>
    <Placemark>
      <name>Дом Маврокордато, 1905 г.</name>
      <styleUrl>#monumentIcon</styleUrl>
      <Point>
        <coordinates>30.73881,46.482422,0</coordinates>
      </Point>
    </Placemark>
    <Placemark>
      <name>Дом Назария Сухоты</name>
      <styleUrl>#monumentIcon</styleUrl>
      <Point>
        <coordinates>30.518482,50.462486,0</coordinates>
      </Point>
    </Placemark>
    <Placemark>
      <name>Дом помещика Крыжановского</name>
      <styleUrl>#monumentIcon</styleUrl>
      <Point>
        <coordinates>30.749275,46.475456,0</coordinates>
      </Point>
    </Placemark>
    <Placemark>
      <name>Дом Новикова 1912 г.</name>
      <styleUrl>#monumentIcon</styleUrl>
      <Point>
        <coordinates>30.740295,46.484192,0</coordinates>
      </Point>
    </Placemark>
    <Placemark>
      <name>Дом Прядуна 1875 г.</name>
      <styleUrl>#monumentIcon</styleUrl>
      <Point>
        <coordinates>30.732174,46.479824,0</coordinates>
      </Point>
    </Placemark>
    <Placemark>
      <name>Дом Рабиновича, конец 19 в.</name>
      <styleUrl>#monumentIcon</styleUrl>
      <Point>
        <coordinates>30.733093,46.490204,0</coordinates>
      </Point>
    </Placemark>
    <Placemark>
      <name>Дом Плачущей вдовы 1907 г.</name>
      <styleUrl>#monumentIcon</styleUrl>
      <Point>
        <coordinates>30.527758,50.443645,0</coordinates>
      </Point>
    </Placemark>
    <Placemark>
      <name>Дом Никифорова 1875 г.</name>
      <styleUrl>#monumentIcon</styleUrl>
      <Point>
        <coordinates>30.749765,46.474655</coordinates>
      </Point>
    </Placemark>
    <Placemark>
      <name>Дом Потоцких (каменный) 17-18 в.</name>
      <styleUrl>#monumentIcon</styleUrl>
      <Point>
        <coordinates>27.795069,48.444687,0</coordinates>
      </Point>
    </Placemark>
    <Placemark>
      <name>Дом Петра І (каменный) 18 в.</name>
      <styleUrl>#monumentIcon</styleUrl>
      <Point>
        <coordinates>30.514542,50.465496,0</coordinates>
      </Point>
    </Placemark>
    <Placemark>
      <name>Дом Присутствених мест (каменный) 1830 г.</name>
      <styleUrl>#monumentIcon</styleUrl>
      <Point>
        <coordinates>30.74077,46.488289,0</coordinates>
      </Point>
    </Placemark>
    <Placemark>
      <name>Дом провиантского состава (каменный) 19 в.</name>
      <styleUrl>#monumentIcon</styleUrl>
      <Point>
        <coordinates>33.028294,50.213078</coordinates>
      </Point>
    </Placemark>
    <Placemark>
      <name>Дом Савина 1848 г.</name>
      <styleUrl>#monumentIcon</styleUrl>
      <Point>
        <coordinates>33.514835,44.610523,0</coordinates>
      </Point>
    </Placemark>
    <Placemark>
      <name>Дом Рихтера (каменный) 1912 г.</name>
      <styleUrl>#monumentIcon</styleUrl>
      <Point>
        <coordinates>33.524067,44.605385,0</coordinates>
      </Point>
    </Placemark>
    <Placemark>
      <name>Дом Рината Ахметова</name>
      <styleUrl>#monumentIcon</styleUrl>
      <Point>
        <coordinates>30.654444,50.257778,0</coordinates>
      </Point>
    </Placemark>
    <Placemark>
      <name>Дом Раухвергера, 1893</name>
      <styleUrl>#monumentIcon</styleUrl>
      <Point>
        <coordinates>30.741615,46.473129,0</coordinates>
      </Point>
    </Placemark>
    <Placemark>
      <name>Дом семьи Ющенко</name>
      <styleUrl>#monumentIcon</styleUrl>
      <Point>
        <coordinates>33.821507,50.9006809</coordinates>
      </Point>
    </Placemark>
    <Placemark>
      <name>Дом Сорокиной</name>
      <styleUrl>#monumentIcon</styleUrl>
      <Point>
        <coordinates>30.524281,50.461277,0</coordinates>
      </Point>
    </Placemark>
    <Placemark>
      <name>Дом Романенко, 1895-96 гг.</name>
      <styleUrl>#monumentIcon</styleUrl>
      <Point>
        <coordinates>30.729877,46.485435</coordinates>
      </Point>
    </Placemark>
    <Placemark>
      <name>Дом ректора университета (каменный),  19 в.</name>
      <styleUrl>#monumentIcon</styleUrl>
      <Point>
        <coordinates>30.510834,50.440098,0</coordinates>
      </Point>
    </Placemark>
    <Placemark>
      <name>Дом Толстого, 1850 г.</name>
      <styleUrl>#monumentIcon</styleUrl>
      <Point>
        <coordinates>30.732962,46.489365,0</coordinates>
      </Point>
    </Placemark>
    <Placemark>
      <name>Дом Руссова 1897 г.</name>
      <styleUrl>#monumentIcon</styleUrl>
      <Point>
        <coordinates>30.731932,46.484798,0</coordinates>
      </Point>
    </Placemark>
    <Placemark>
      <name>Дом с атлантами, 1899 г.</name>
      <styleUrl>#monumentIcon</styleUrl>
      <Point>
        <coordinates>30.73568,46.4897,0</coordinates>
      </Point>
    </Placemark>
    <Placemark>
      <name>Дом страхового общества Жизнь 1900 г.</name>
      <styleUrl>#monumentIcon</styleUrl>
      <Point>
        <coordinates>30.732651,46.487492,0</coordinates>
      </Point>
    </Placemark>
    <Placemark>
      <name>Дом Тальянского 1834 г.</name>
      <styleUrl>#monumentIcon</styleUrl>
      <Point>
        <coordinates>30.743019,46.482121,0</coordinates>
      </Point>
    </Placemark>
    <Placemark>
      <name>Дом Русова, 1890 г.</name>
      <styleUrl>#monumentIcon</styleUrl>
      <Point>
        <coordinates>30.731106,46.4910849</coordinates>
      </Point>
    </Placemark>
    <Placemark>
      <name>Дом Сироткина</name>
      <styleUrl>#monumentIcon</styleUrl>
      <Point>
        <coordinates>30.515139,50.449005,0</coordinates>
      </Point>
    </Placemark>
    <Placemark>
      <name>Дом с химерами 1912 г.</name>
      <styleUrl>#monumentIcon</styleUrl>
      <Point>
        <coordinates>36.243011,50.008011,0</coordinates>
      </Point>
    </Placemark>
    <Placemark>
      <name>Дом Ферсмана (развалины)</name>
      <styleUrl>#monumentIcon</styleUrl>
      <Point>
        <coordinates>34.179104,44.90168,0</coordinates>
      </Point>
    </Placemark>
    <Placemark>
      <name>Дом Санца, 1875 г.</name>
      <styleUrl>#monumentIcon</styleUrl>
      <Point>
        <coordinates>30.738503,46.483803,0</coordinates>
      </Point>
    </Placemark>
    <Placemark>
      <name>Дом Сигала, 1880 г.</name>
      <styleUrl>#monumentIcon</styleUrl>
      <Point>
        <coordinates>30.728745,46.480907,0</coordinates>
      </Point>
    </Placemark>
    <Placemark>
      <name>Дом союза писателей (каменный) 1898 г.</name>
      <styleUrl>#monumentIcon</styleUrl>
      <Point>
        <coordinates>30.52998,50.446693,0</coordinates>
      </Point>
    </Placemark>
    <Placemark>
      <name>Дом Терещенко, 1855-66 гг.</name>
      <styleUrl>#monumentIcon</styleUrl>
      <Point>
        <coordinates>33.909901,51.674698,0</coordinates>
      </Point>
    </Placemark>
    <Placemark>
      <name>Дом Стрельбицкого  (каменный) 1808 г.</name>
      <styleUrl>#monumentIcon</styleUrl>
      <Point>
        <coordinates>30.519466,50.46093,0</coordinates>
      </Point>
    </Placemark>
    <Placemark>
      <name>Дом Театрально-концертного зала (каменный) 1913 г.</name>
      <styleUrl>#monumentIcon</styleUrl>
      <Point>
        <coordinates>35.043392,48.468342,0</coordinates>
      </Point>
    </Placemark>
    <Placemark>
      <name>Дом Таранушенка (каменный) 1838 г.</name>
      <styleUrl>#monumentIcon</styleUrl>
      <Point>
        <coordinates>34.56218,49.584278,0</coordinates>
      </Point>
    </Placemark>
    <Placemark>
      <name>Дом Трубецких (деревянный) 1820 г.</name>
      <styleUrl>#monumentIcon</styleUrl>
      <Point>
        <coordinates>30.518148,50.457382,0</coordinates>
      </Point>
    </Placemark>
    <Placemark>
      <name>Дом Терещенко</name>
      <styleUrl>#monumentIcon</styleUrl>
      <Point>
        <coordinates>30.513378,50.439751,0</coordinates>
      </Point>
    </Placemark>
    <Placemark>
      <name>Дом Торичелли</name>
      <styleUrl>#monumentIcon</styleUrl>
      <Point>
        <coordinates>30.735497,46.4841649</coordinates>
      </Point>
    </Placemark>
    <Placemark>
      <name>Дом Фердинанда Ницке</name>
      <styleUrl>#monumentIcon</styleUrl>
      <Point>
        <coordinates>30.507504,50.467567,0</coordinates>
      </Point>
    </Placemark>
    <Placemark>
      <name>Дом Правительства Украины (каменный) 1936-1938 гг.</name>
      <styleUrl>#monumentIcon</styleUrl>
      <Point>
        <coordinates>30.533947,50.447952</coordinates>
      </Point>
    </Placemark>
    <Placemark>
      <name>Дом Терещенко (каменный) 1841 - 1860 гг.</name>
      <styleUrl>#monumentIcon</styleUrl>
      <Point>
        <coordinates>30.515797,50.443272,0</coordinates>
      </Point>
    </Placemark>
    <Placemark>
      <name>Дом Фроммета</name>
      <styleUrl>#monumentIcon</styleUrl>
      <Point>
        <coordinates>30.502531,50.445557,0</coordinates>
      </Point>
    </Placemark>
    <Placemark>
      <name>Дом Фальц-Фейнов 1899 г.</name>
      <styleUrl>#monumentIcon</styleUrl>
      <Point>
        <coordinates>30.735708,46.489998,0</coordinates>
      </Point>
    </Placemark>
    <Placemark>
      <name>Дом Федора Коробки</name>
      <styleUrl>#monumentIcon</styleUrl>
      <Point>
        <coordinates>30.520126,50.462505,0</coordinates>
      </Point>
    </Placemark>
    <Placemark>
      <name>Дом Фон-Деши 1909 г.</name>
      <styleUrl>#monumentIcon</styleUrl>
      <Point>
        <coordinates>30.735722,46.487816,0</coordinates>
      </Point>
    </Placemark>
    <Placemark>
      <name>Дом Щербины, 1892 г.</name>
      <styleUrl>#monumentIcon</styleUrl>
      <Point>
        <coordinates>32.069725,49.441284,0</coordinates>
      </Point>
    </Placemark>
    <Placemark>
      <name>Дом Черепенникова и 1878 г.</name>
      <styleUrl>#monumentIcon</styleUrl>
      <Point>
        <coordinates>30.74221,46.480682,0</coordinates>
      </Point>
    </Placemark>
    <Placemark>
      <name>Дом Чижевича 1875 г.</name>
      <styleUrl>#monumentIcon</styleUrl>
      <Point>
        <coordinates>30.736839,46.488422,0</coordinates>
      </Point>
    </Placemark>
    <Placemark>
      <name>Дом Шемякина, средина 19 в.</name>
      <styleUrl>#monumentIcon</styleUrl>
      <Point>
        <coordinates>30.735743,46.489437,0</coordinates>
      </Point>
    </Placemark>
    <Placemark>
      <name>Жилой дом 1800 г.</name>
      <styleUrl>#monumentIcon</styleUrl>
      <Point>
        <coordinates>32.269928,48.507248,0</coordinates>
      </Point>
    </Placemark>
    <Placemark>
      <name>Дом Шполянского (каменный) 19 в.</name>
      <styleUrl>#monumentIcon</styleUrl>
      <Point>
        <coordinates>32.263184,48.50589,0</coordinates>
      </Point>
    </Placemark>
    <Placemark>
      <name>Дом Эмиля Протце, начало 20 в.</name>
      <styleUrl>#monumentIcon</styleUrl>
      <Point>
        <coordinates>37.531761,48.7235149</coordinates>
      </Point>
    </Placemark>
    <Placemark>
      <name>Доходный дом 1909 г.</name>
      <styleUrl>#monumentIcon</styleUrl>
      <Point>
        <coordinates>30.532194,50.4430309</coordinates>
      </Point>
    </Placemark>
    <Placemark>
      <name>Дома 18-19 в.</name>
      <styleUrl>#monumentIcon</styleUrl>
      <Point>
        <coordinates>28.083557,48.736179,0</coordinates>
      </Point>
    </Placemark>
    <Placemark>
      <name>Дома построен в 1957 г. поточным методом</name>
      <styleUrl>#monumentIcon</styleUrl>
      <Point>
        <coordinates>30.529444,50.428333,0</coordinates>
      </Point>
    </Placemark>
    <Placemark>
      <name>Дом, 1890</name>
      <styleUrl>#monumentIcon</styleUrl>
      <Point>
        <coordinates>30.741823,46.47084,0</coordinates>
      </Point>
    </Placemark>
    <Placemark>
      <name>Дом Юфа, 1880 г.</name>
      <styleUrl>#monumentIcon</styleUrl>
      <Point>
        <coordinates>30.741247,46.474644</coordinates>
      </Point>
    </Placemark>
    <Placemark>
      <name>Дома в стиле конструктивизма 1920-30 гг.</name>
      <styleUrl>#monumentIcon</styleUrl>
      <Point>
        <coordinates>30.472363,50.457275,0</coordinates>
      </Point>
    </Placemark>
    <Placemark>
      <name>Дома в стиле конструктивизма 1920 гг.</name>
      <styleUrl>#monumentIcon</styleUrl>
      <Point>
        <coordinates>30.42264,50.460281</coordinates>
      </Point>
    </Placemark>
    <Placemark>
      <name>Доходный дом инженера Демченко</name>
      <styleUrl>#monumentIcon</styleUrl>
      <Point>
        <coordinates>30.527504,50.446697,0</coordinates>
      </Point>
    </Placemark>
    <Placemark>
      <name>Домик графини Уваровой (Терещенко)</name>
      <styleUrl>#monumentIcon</styleUrl>
      <Point>
        <coordinates>30.154057,50.542526,0</coordinates>
      </Point>
    </Placemark>
    <Placemark>
      <name>Дом-корабль (Шифа), 19 в.</name>
      <styleUrl>#monumentIcon</styleUrl>
      <Point>
        <coordinates>25.936687,48.2948609</coordinates>
      </Point>
    </Placemark>
    <Placemark>
      <name>Дома-близнецы (каменные), 17-18 вв.</name>
      <styleUrl>#monumentIcon</styleUrl>
      <Point>
        <coordinates>25.726418,50.091858</coordinates>
      </Point>
    </Placemark>
    <Placemark>
      <name>Доходный дом 1909 г.</name>
      <styleUrl>#monumentIcon</styleUrl>
      <Point>
        <coordinates>30.52903,50.442539,0</coordinates>
      </Point>
    </Placemark>
    <Placemark>
      <name>Доходный дом архитектора Георгия Шлейфера 1909 г.</name>
      <styleUrl>#monumentIcon</styleUrl>
      <Point>
        <coordinates>30.533409,50.44656,0</coordinates>
      </Point>
    </Placemark>
    <Placemark>
      <name>Доходный дом Асвадурова 1912-14 гг.</name>
      <styleUrl>#monumentIcon</styleUrl>
      <Point>
        <coordinates>30.742069,46.4762339</coordinates>
      </Point>
    </Placemark>
    <Placemark>
      <name>Доменная печь (каменный) 1810 г.</name>
      <styleUrl>#monumentIcon</styleUrl>
      <Point>
        <coordinates>24.129444,48.703056,0</coordinates>
      </Point>
    </Placemark>
    <Placemark>
      <name>Доходный дом Зайченко 1901</name>
      <styleUrl>#monumentIcon</styleUrl>
      <Point>
        <coordinates>30.741714,46.4736519</coordinates>
      </Point>
    </Placemark>
    <Placemark>
      <name>Доходный дом 1892 г.</name>
      <styleUrl>#monumentIcon</styleUrl>
      <Point>
        <coordinates>30.73068,46.484989,0</coordinates>
      </Point>
    </Placemark>
    <Placemark>
      <name>Доходный дом 1990 г.</name>
      <styleUrl>#monumentIcon</styleUrl>
      <Point>
        <coordinates>30.52924,50.442684,0</coordinates>
      </Point>
    </Placemark>
    <Placemark>
      <name>Доходный дом Вассаля</name>
      <styleUrl>#monumentIcon</styleUrl>
      <Point>
        <coordinates>30.749657,46.478352,0</coordinates>
      </Point>
    </Placemark>
    <Placemark>
      <name>Доходный дом Клеймана</name>
      <styleUrl>#monumentIcon</styleUrl>
      <Point>
        <coordinates>30.743393,46.484619</coordinates>
      </Point>
    </Placemark>
    <Placemark>
      <name>Доходный дом Тангура, 1888 г.</name>
      <styleUrl>#monumentIcon</styleUrl>
      <Point>
        <coordinates>30.731291,46.477348,0</coordinates>
      </Point>
    </Placemark>
    <Placemark>
      <name>Доходный дом купцов Захарьиных (каменный)</name>
      <styleUrl>#monumentIcon</styleUrl>
      <Point>
        <coordinates>35.181881,47.811253,0</coordinates>
      </Point>
    </Placemark>
    <Placemark>
      <name>Доходный дом Лемме, 1848</name>
      <styleUrl>#monumentIcon</styleUrl>
      <Point>
        <coordinates>30.741982,46.479023,0</coordinates>
      </Point>
    </Placemark>
    <Placemark>
      <name>Доходный дом Островского, 1899</name>
      <styleUrl>#monumentIcon</styleUrl>
      <Point>
        <coordinates>30.745659,46.473499,0</coordinates>
      </Point>
    </Placemark>
    <Placemark>
      <name>Доходный дом Блюмберга</name>
      <styleUrl>#monumentIcon</styleUrl>
      <Point>
        <coordinates>30.731819,46.47707,0</coordinates>
      </Point>
    </Placemark>
    <Placemark>
      <name>Доходный дом Левита 1891 г.</name>
      <styleUrl>#monumentIcon</styleUrl>
      <Point>
        <coordinates>30.73258,46.486641,0</coordinates>
      </Point>
    </Placemark>
    <Placemark>
      <name>Женская Ольгинская гимназия (каменная) 19 в.</name>
      <styleUrl>#monumentIcon</styleUrl>
      <Point>
        <coordinates>30.515303,50.444508,0</coordinates>
      </Point>
    </Placemark>
    <Placemark>
      <name>Доходный дом Розенблата 1887 г.</name>
      <styleUrl>#monumentIcon</styleUrl>
      <Point>
        <coordinates>30.732273,46.480453,0</coordinates>
      </Point>
    </Placemark>
    <Placemark>
      <name>Доходный дом 1880 г.</name>
      <styleUrl>#monumentIcon</styleUrl>
      <Point>
        <coordinates>30.735312,46.488052,0</coordinates>
      </Point>
    </Placemark>
    <Placemark>
      <name>Доходный дом Перозио</name>
      <styleUrl>#monumentIcon</styleUrl>
      <Point>
        <coordinates>30.741941,46.474922,0</coordinates>
      </Point>
    </Placemark>
    <Placemark>
      <name>Жилой дом  19 в.</name>
      <styleUrl>#monumentIcon</styleUrl>
      <Point>
        <coordinates>30.525572,50.461487,0</coordinates>
      </Point>
    </Placemark>
    <Placemark>
      <name>Женская гимназия (каменная), 1912 г.</name>
      <styleUrl>#monumentIcon</styleUrl>
      <Point>
        <coordinates>33.272102,51.999378,0</coordinates>
      </Point>
    </Placemark>
    <Placemark>
      <name>Доходный дом Иссерлиса 1910 г.</name>
      <styleUrl>#monumentIcon</styleUrl>
      <Point>
        <coordinates>30.529869,50.449856,0</coordinates>
      </Point>
    </Placemark>
    <Placemark>
      <name>Доходный дом Хаджи-Хичинова, 1910</name>
      <styleUrl>#monumentIcon</styleUrl>
      <Point>
        <coordinates>30.741676,46.473331</coordinates>
      </Point>
    </Placemark>
    <Placemark>
      <name>Доходный дом Шполянского, конец 19 в.</name>
      <styleUrl>#monumentIcon</styleUrl>
      <Point>
        <coordinates>30.741611,46.476879,0</coordinates>
      </Point>
    </Placemark>
    <Placemark>
      <name>Жилой дом (аптека) (каменный) 19 в.</name>
      <styleUrl>#monumentIcon</styleUrl>
      <Point>
        <coordinates>30.514313,50.4640579</coordinates>
      </Point>
    </Placemark>
    <Placemark>
      <name>Духовная семинария</name>
      <styleUrl>#monumentIcon</styleUrl>
      <Point>
        <coordinates>26.580746,48.68578,0</coordinates>
      </Point>
    </Placemark>
    <Placemark>
      <name>Доходный дом Штеренберга, конец 19 в.</name>
      <styleUrl>#monumentIcon</styleUrl>
      <Point>
        <coordinates>30.731915,46.4780199</coordinates>
      </Point>
    </Placemark>
    <Placemark>
      <name>Жилой дом, 1826, 1893 г.</name>
      <styleUrl>#monumentIcon</styleUrl>
      <Point>
        <coordinates>30.740149,46.4886509</coordinates>
      </Point>
    </Placemark>
    <Placemark>
      <name>Епископский дом (каменный) 1865 г.</name>
      <styleUrl>#monumentIcon</styleUrl>
      <Point>
        <coordinates>28.655218,50.254868,0</coordinates>
      </Point>
    </Placemark>
    <Placemark>
      <name>Женское епархиальное училище (каменное) 1809 г.</name>
      <styleUrl>#monumentIcon</styleUrl>
      <Point>
        <coordinates>32.999214,50.0148579</coordinates>
      </Point>
    </Placemark>
    <Placemark>
      <name>Жилой дом</name>
      <styleUrl>#monumentIcon</styleUrl>
      <Point>
        <coordinates>30.74955,46.47401,0</coordinates>
      </Point>
    </Placemark>
    <Placemark>
      <name>Жилой дом 1850</name>
      <styleUrl>#monumentIcon</styleUrl>
      <Point>
        <coordinates>30.720366,46.478600</coordinates>
      </Point>
    </Placemark>
    <Placemark>
      <name>Жилой дом 1893 г.</name>
      <styleUrl>#monumentIcon</styleUrl>
      <Point>
        <coordinates>30.754105,46.472481,0</coordinates>
      </Point>
    </Placemark>
    <Placemark>
      <name>Жилой дом (каменный)  19 в.</name>
      <styleUrl>#monumentIcon</styleUrl>
      <Point>
        <coordinates>30.514057,50.4642639</coordinates>
      </Point>
    </Placemark>
    <Placemark>
      <name>Жилой дом (деревянный) 1848 г.</name>
      <styleUrl>#monumentIcon</styleUrl>
      <Point>
        <coordinates>30.523273,50.442368,0</coordinates>
      </Point>
    </Placemark>
    <Placemark>
      <name>Жилой дом (каменный)  15-18 в.</name>
      <styleUrl>#monumentIcon</styleUrl>
      <Point>
        <coordinates>26.57152,48.672485</coordinates>
      </Point>
    </Placemark>
    <Placemark>
      <name>Жилой дом (каменный) 16 в.</name>
      <styleUrl>#monumentIcon</styleUrl>
      <Point>
        <coordinates>26.573202,48.673286,0</coordinates>
      </Point>
    </Placemark>
    <Placemark>
      <name>Жилой дом (каменный) 15 в.</name>
      <styleUrl>#monumentIcon</styleUrl>
      <Point>
        <coordinates>26.575048,48.671028,0</coordinates>
      </Point>
    </Placemark>
    <Placemark>
      <name>Жилой дом (каменный) 16-19 в.</name>
      <styleUrl>#monumentIcon</styleUrl>
      <Point>
        <coordinates>25.318415,50.7390099</coordinates>
      </Point>
    </Placemark>
    <Placemark>
      <name>Жилой дом (каменный) 19 в.</name>
      <styleUrl>#monumentIcon</styleUrl>
      <Point>
        <coordinates>25.31999,50.736992,0</coordinates>
      </Point>
    </Placemark>
    <Placemark>
      <name>Жилой дом (каменный) 16-19 в.</name>
      <styleUrl>#monumentIcon</styleUrl>
      <Point>
        <coordinates>26.572374,48.673161,0</coordinates>
      </Point>
    </Placemark>
    <Placemark>
      <name>Жилой дом (каменный) 1774, 1850 гг.</name>
      <styleUrl>#monumentIcon</styleUrl>
      <Point>
        <coordinates>24.029608,49.841358</coordinates>
      </Point>
    </Placemark>
    <Placemark>
      <name>Жилой дом (каменный) 17 в.</name>
      <styleUrl>#monumentIcon</styleUrl>
      <Point>
        <coordinates>24.031549,49.843281</coordinates>
      </Point>
    </Placemark>
    <Placemark>
      <name>Жилой дом (каменный) 1830 г.</name>
      <styleUrl>#monumentIcon</styleUrl>
      <Point>
        <coordinates>30.515734,50.46476,0</coordinates>
      </Point>
    </Placemark>
    <Placemark>
      <name>Жилой дом (каменный) 1783 г.</name>
      <styleUrl>#monumentIcon</styleUrl>
      <Point>
        <coordinates>24.031206,49.843231,0</coordinates>
      </Point>
    </Placemark>
    <Placemark>
      <name>Жилой дом (каменный) 16-19 в.</name>
      <styleUrl>#monumentIcon</styleUrl>
      <Point>
        <coordinates>24.031542,49.843185</coordinates>
      </Point>
    </Placemark>
    <Placemark>
      <name>Жилой дом (каменный) 20 в.</name>
      <styleUrl>#monumentIcon</styleUrl>
      <Point>
        <coordinates>25.318163,50.741299,0</coordinates>
      </Point>
    </Placemark>
    <Placemark>
      <name>Жилой дом (каменный) 1884 г.</name>
      <styleUrl>#monumentIcon</styleUrl>
      <Point>
        <coordinates>26.571239,48.670708,0</coordinates>
      </Point>
    </Placemark>
    <Placemark>
      <name>Жилой дом (каменный) 19 в.</name>
      <styleUrl>#monumentIcon</styleUrl>
      <Point>
        <coordinates>26.572741,48.67688,0</coordinates>
      </Point>
    </Placemark>
    <Placemark>
      <name>Жилой дом (каменный) 17-18 в.</name>
      <styleUrl>#monumentIcon</styleUrl>
      <Point>
        <coordinates>24.031767,49.8432999</coordinates>
      </Point>
    </Placemark>
    <Placemark>
      <name>Жилой дом (каменный) 19 в.</name>
      <styleUrl>#monumentIcon</styleUrl>
      <Point>
        <coordinates>26.572803,48.6771739</coordinates>
      </Point>
    </Placemark>
    <Placemark>
      <name>Жилой дом (каменный) 20 в.</name>
      <styleUrl>#monumentIcon</styleUrl>
      <Point>
        <coordinates>25.317432,50.740181,0</coordinates>
      </Point>
    </Placemark>
    <Placemark>
      <name>Жилой дом (каменный)  19 в.</name>
      <styleUrl>#monumentIcon</styleUrl>
      <Point>
        <coordinates>32.609303,46.632778,0</coordinates>
      </Point>
    </Placemark>
    <Placemark>
      <name>Жилой дом (каменный) 16-17 в.</name>
      <styleUrl>#monumentIcon</styleUrl>
      <Point>
        <coordinates>25.319452,50.738789,0</coordinates>
      </Point>
    </Placemark>
    <Placemark>
      <name>Жилой дом (каменный) 1804-1878 гг.</name>
      <styleUrl>#monumentIcon</styleUrl>
      <Point>
        <coordinates>30.518732,50.461502,0</coordinates>
      </Point>
    </Placemark>
    <Placemark>
      <name>Жилой дом 1828-32 гг.</name>
      <styleUrl>#monumentIcon</styleUrl>
      <Point>
        <coordinates>30.743023,46.48597,0</coordinates>
      </Point>
    </Placemark>
    <Placemark>
      <name>Жилой дом (каменный) 19 в.</name>
      <styleUrl>#monumentIcon</styleUrl>
      <Point>
        <coordinates>25.318497,50.741905,0</coordinates>
      </Point>
    </Placemark>
    <Placemark>
      <name>Жилой дом (каменный) 1830 г.</name>
      <styleUrl>#monumentIcon</styleUrl>
      <Point>
        <coordinates>30.520594,50.461971,0</coordinates>
      </Point>
    </Placemark>
    <Placemark>
      <name>Жилой дом (каменный) 1820 г.</name>
      <styleUrl>#monumentIcon</styleUrl>
      <Point>
        <coordinates>32.619831,46.629948,0</coordinates>
      </Point>
    </Placemark>
    <Placemark>
      <name>Жилой дом (каменный) 19 в.</name>
      <styleUrl>#monumentIcon</styleUrl>
      <Point>
        <coordinates>34.561501,49.578972,0</coordinates>
      </Point>
    </Placemark>
    <Placemark>
      <name>Жилой дом (каменный) 1830-е гг.</name>
      <styleUrl>#monumentIcon</styleUrl>
      <Point>
        <coordinates>30.52562,50.444859,0</coordinates>
      </Point>
    </Placemark>
    <Placemark>
      <name>Жилой дом (каменный) 19 в.</name>
      <styleUrl>#monumentIcon</styleUrl>
      <Point>
        <coordinates>30.517969,50.461674</coordinates>
      </Point>
    </Placemark>
    <Placemark>
      <name>Жилой дом 1826-27 гг.</name>
      <styleUrl>#monumentIcon</styleUrl>
      <Point>
        <coordinates>30.740322,46.488487</coordinates>
      </Point>
    </Placemark>
    <Placemark>
      <name>Жилой дом (каменный) 1902 г.</name>
      <styleUrl>#monumentIcon</styleUrl>
      <Point>
        <coordinates>30.516115,50.4599339</coordinates>
      </Point>
    </Placemark>
    <Placemark>
      <name>Жилой дом (каменный) 20 в.</name>
      <styleUrl>#monumentIcon</styleUrl>
      <Point>
        <coordinates>30.52552,50.443745,0</coordinates>
      </Point>
    </Placemark>
    <Placemark>
      <name>Жилой дом (каменный) 19 в.</name>
      <styleUrl>#monumentIcon</styleUrl>
      <Point>
        <coordinates>30.513132,50.46516,0</coordinates>
      </Point>
    </Placemark>
    <Placemark>
      <name>Жилой дом 1900 г.</name>
      <styleUrl>#monumentIcon</styleUrl>
      <Point>
        <coordinates>30.526604,50.447487,0</coordinates>
      </Point>
    </Placemark>
    <Placemark>
      <name>Жилой дом 1890 г.</name>
      <styleUrl>#monumentIcon</styleUrl>
      <Point>
        <coordinates>30.754471,46.472801,0</coordinates>
      </Point>
    </Placemark>
    <Placemark>
      <name>Жилой дом 1820 г.</name>
      <styleUrl>#monumentIcon</styleUrl>
      <Point>
        <coordinates>30.544872,50.433895,0</coordinates>
      </Point>
    </Placemark>
    <Placemark>
      <name>Жилой дом 1827-28 гг.</name>
      <styleUrl>#monumentIcon</styleUrl>
      <Point>
        <coordinates>30.742517,46.486465,0</coordinates>
      </Point>
    </Placemark>
    <Placemark>
      <name>Жилой дом 1901 г.</name>
      <styleUrl>#monumentIcon</styleUrl>
      <Point>
        <coordinates>30.524179,50.445721</coordinates>
      </Point>
    </Placemark>
    <Placemark>
      <name>Жилой дом (каменный) 19 в.</name>
      <styleUrl>#monumentIcon</styleUrl>
      <Point>
        <coordinates>32.610168,46.631641,0</coordinates>
      </Point>
    </Placemark>
    <Placemark>
      <name>Жилой дом 1874 г.</name>
      <styleUrl>#monumentIcon</styleUrl>
      <Point>
        <coordinates>30.740505,46.4696849</coordinates>
      </Point>
    </Placemark>
    <Placemark>
      <name>Жилой дом 1834 г.</name>
      <styleUrl>#monumentIcon</styleUrl>
      <Point>
        <coordinates>30.730764,46.480011,0</coordinates>
      </Point>
    </Placemark>
    <Placemark>
      <name>Жилой дом 1860 г.</name>
      <styleUrl>#monumentIcon</styleUrl>
      <Point>
        <coordinates>30.740765,46.471733,0</coordinates>
      </Point>
    </Placemark>
    <Placemark>
      <name>Жилой дом 1880 г.</name>
      <styleUrl>#monumentIcon</styleUrl>
      <Point>
        <coordinates>30.74132,46.471287,0</coordinates>
      </Point>
    </Placemark>
    <Placemark>
      <name>Жилой дом 1901 г.</name>
      <styleUrl>#monumentIcon</styleUrl>
      <Point>
        <coordinates>30.744629,46.477005,0</coordinates>
      </Point>
    </Placemark>
    <Placemark>
      <name>Жилой дом 19 в.</name>
      <styleUrl>#monumentIcon</styleUrl>
      <Point>
        <coordinates>30.730377,46.485172,0</coordinates>
      </Point>
    </Placemark>
    <Placemark>
      <name>Корчма (каменный) 18 в.</name>
      <styleUrl>#monumentIcon</styleUrl>
      <Point>
        <coordinates>30.449064,48.872089</coordinates>
      </Point>
    </Placemark>
    <Placemark>
      <name>Жилой дом 1886 г.</name>
      <styleUrl>#monumentIcon</styleUrl>
      <Point>
        <coordinates>30.527145,50.4469869</coordinates>
      </Point>
    </Placemark>
    <Placemark>
      <name>Жилой дом 1904 г.</name>
      <styleUrl>#monumentIcon</styleUrl>
      <Point>
        <coordinates>30.742779,46.486237,0</coordinates>
      </Point>
    </Placemark>
    <Placemark>
      <name>Жилой дом 1905 г.</name>
      <styleUrl>#monumentIcon</styleUrl>
      <Point>
        <coordinates>30.731323,46.488476,0</coordinates>
      </Point>
    </Placemark>
    <Placemark>
      <name>Народный Дом (1898 г.) (каменный)</name>
      <styleUrl>#monumentIcon</styleUrl>
      <Point>
        <coordinates>26.994963,49.4219859</coordinates>
      </Point>
    </Placemark>
    <Placemark>
      <name>Жилой дом 1907 г.</name>
      <styleUrl>#monumentIcon</styleUrl>
      <Point>
        <coordinates>30.74312,46.483086</coordinates>
      </Point>
    </Placemark>
    <Placemark>
      <name>Жилой дом Мюльгаузена (каменный) 1787 г.</name>
      <styleUrl>#monumentIcon</styleUrl>
      <Point>
        <coordinates>34.09642,44.97419,0</coordinates>
      </Point>
    </Placemark>
    <Placemark>
      <name>Жилой дом 1906 г.</name>
      <styleUrl>#monumentIcon</styleUrl>
      <Point>
        <coordinates>30.744152,46.474236,0</coordinates>
      </Point>
    </Placemark>
    <Placemark>
      <name>Жилой дом 1935 г.</name>
      <styleUrl>#monumentIcon</styleUrl>
      <Point>
        <coordinates>30.542372,50.444206,0</coordinates>
      </Point>
    </Placemark>
    <Placemark>
      <name>Жилой дом 1910 г.</name>
      <styleUrl>#monumentIcon</styleUrl>
      <Point>
        <coordinates>30.519161,50.439911,0</coordinates>
      </Point>
    </Placemark>
    <Placemark>
      <name>Жилой дом 1911 г.</name>
      <styleUrl>#monumentIcon</styleUrl>
      <Point>
        <coordinates>30.740616,46.47028,0</coordinates>
      </Point>
    </Placemark>
    <Placemark>
      <name>Жилой дом 1912 г.</name>
      <styleUrl>#monumentIcon</styleUrl>
      <Point>
        <coordinates>30.720421,46.488285,0</coordinates>
      </Point>
    </Placemark>
    <Placemark>
      <name>Жилой дом, начало 20 в.</name>
      <styleUrl>#monumentIcon</styleUrl>
      <Point>
        <coordinates>30.546980,50.438034,0</coordinates>
      </Point>
    </Placemark>
    <Placemark>
      <name>Жилой дом Лискевичей (каменный) 17-19 в.</name>
      <styleUrl>#monumentIcon</styleUrl>
      <Point>
        <coordinates>24.032196,49.843361</coordinates>
      </Point>
    </Placemark>
    <Placemark>
      <name>Жилой дом 1914 г.</name>
      <styleUrl>#monumentIcon</styleUrl>
      <Point>
        <coordinates>30.523926,50.443874,0</coordinates>
      </Point>
    </Placemark>
    <Placemark>
      <name>Караван-сарай (каменный) 1654 г.</name>
      <styleUrl>#monumentIcon</styleUrl>
      <Point>
        <coordinates>34.603996,45.054676,0</coordinates>
      </Point>
    </Placemark>
    <Placemark>
      <name>Жилой дом Пузини (каменный)</name>
      <styleUrl>#monumentIcon</styleUrl>
      <Point>
        <coordinates>25.321508,50.738590</coordinates>
      </Point>
    </Placemark>
    <Placemark>
      <name>Жилой дом НКВД 1935 г.</name>
      <styleUrl>#monumentIcon</styleUrl>
      <Point>
        <coordinates>30.532471,50.441139</coordinates>
      </Point>
    </Placemark>
    <Placemark>
      <name>Земская школа (каменная), 1911 г.</name>
      <styleUrl>#monumentIcon</styleUrl>
      <Point>
        <coordinates>31.139097,50.993191,0</coordinates>
      </Point>
    </Placemark>
    <Placemark>
      <name>Загородная усадьба (каменная) 1772 г.</name>
      <styleUrl>#monumentIcon</styleUrl>
      <Point>
        <coordinates>39.185387,48.58429,0</coordinates>
      </Point>
    </Placemark>
    <Placemark>
      <name>Замок графа Холоневского</name>
      <styleUrl>#monumentIcon</styleUrl>
      <Point>
        <coordinates>28.330276,49.483334,0</coordinates>
      </Point>
    </Placemark>
    <Placemark>
      <name>Жилой дом 1935 г.</name>
      <styleUrl>#monumentIcon</styleUrl>
      <Point>
        <coordinates>30.532612,50.446411,0</coordinates>
      </Point>
    </Placemark>
    <Placemark>
      <name>Загородная усадьба (каменная) 19 в.</name>
      <styleUrl>#monumentIcon</styleUrl>
      <Point>
        <coordinates>37.3064,50.234951,0</coordinates>
      </Point>
    </Placemark>
    <Placemark>
      <name>Жилой дом Пузини (каменный) 16-18 в.</name>
      <styleUrl>#monumentIcon</styleUrl>
      <Point>
        <coordinates>25.322102,50.7391169</coordinates>
      </Point>
    </Placemark>
    <Placemark>
      <name>Здание Матросского Клуба</name>
      <styleUrl>#monumentIcon</styleUrl>
      <Point>
        <coordinates>33.524166,44.600323,0</coordinates>
      </Point>
    </Placemark>
    <Placemark>
      <name>Каменица Шольц-Вольфовичей</name>
      <styleUrl>#monumentIcon</styleUrl>
      <Point>
        <coordinates>24.030672,49.841274,0</coordinates>
      </Point>
    </Placemark>
    <Placemark>
      <name>Кадетский корпус (каменный) 1840 г.</name>
      <styleUrl>#monumentIcon</styleUrl>
      <Point>
        <coordinates>34.550072,49.590698,0</coordinates>
      </Point>
    </Placemark>
    <Placemark>
      <name>Земская больница (каменный) 1864-1872 рг.</name>
      <styleUrl>#monumentIcon</styleUrl>
      <Point>
        <coordinates>26.580311,48.683887,0</coordinates>
      </Point>
    </Placemark>
    <Placemark>
      <name>Институт благородных девиц (каменный) 1832 г.</name>
      <styleUrl>#monumentIcon</styleUrl>
      <Point>
        <coordinates>34.566372,49.575832,0</coordinates>
      </Point>
    </Placemark>
    <Placemark>
      <name>Зимний дворец (деревянный) 1796 г.</name>
      <styleUrl>#monumentIcon</styleUrl>
      <Point>
        <coordinates>30.109016,49.792767,0</coordinates>
      </Point>
    </Placemark>
    <Placemark>
      <name>Зимний театр (каменный) 1907 г.</name>
      <styleUrl>#monumentIcon</styleUrl>
      <Point>
        <coordinates>35.033566,48.470894,0</coordinates>
      </Point>
    </Placemark>
    <Placemark>
      <name>Контрактовий Дом (каменный) 1817 г.</name>
      <styleUrl>#monumentIcon</styleUrl>
      <Point>
        <coordinates>30.517981,50.4650879</coordinates>
      </Point>
    </Placemark>
    <Placemark>
      <name>Кинотеатр (каменный) 1939 г.</name>
      <styleUrl>#monumentIcon</styleUrl>
      <Point>
        <coordinates>25.320854,50.7436139</coordinates>
      </Point>
    </Placemark>
    <Placemark>
      <name>Контрактовий Дом (каменный) 1800 г.</name>
      <styleUrl>#monumentIcon</styleUrl>
      <Point>
        <coordinates>30.519808,50.46109,0</coordinates>
      </Point>
    </Placemark>
    <Placemark>
      <name>Кловский Дворец (каменный) 1756 г.</name>
      <styleUrl>#monumentIcon</styleUrl>
      <Point>
        <coordinates>30.532728,50.442154,0</coordinates>
      </Point>
    </Placemark>
    <Placemark>
      <name>Манеж (каменный) 1848 г.</name>
      <styleUrl>#monumentIcon</styleUrl>
      <Point>
        <coordinates>32.261421,48.5179859</coordinates>
      </Point>
    </Placemark>
    <Placemark>
      <name>Земская управа (каменный) 1886 г.</name>
      <styleUrl>#monumentIcon</styleUrl>
      <Point>
        <coordinates>34.798531,50.906281,0</coordinates>
      </Point>
    </Placemark>
    <Placemark>
      <name>Институт благородных девиц (каменный) 1839-1843 гг.</name>
      <styleUrl>#monumentIcon</styleUrl>
      <Point>
        <coordinates>30.527603,50.449738</coordinates>
      </Point>
    </Placemark>
    <Placemark>
      <name>Коммерческое училище (каменный) 1912 г.</name>
      <styleUrl>#monumentIcon</styleUrl>
      <Point>
        <coordinates>35.029392,48.466923</coordinates>
      </Point>
    </Placemark>
    <Placemark>
      <name>Комерцiйний банк (каменный), конец 19 в.</name>
      <styleUrl>#monumentIcon</styleUrl>
      <Point>
        <coordinates>26.575064,48.6773909</coordinates>
      </Point>
    </Placemark>
    <Placemark>
      <name>Корпус игумена, 1781 г.</name>
      <styleUrl>#monumentIcon</styleUrl>
      <Point>
        <coordinates>30.521421,50.465569,0</coordinates>
      </Point>
    </Placemark>
    <Placemark>
      <name>Кокоревская беседка, 1863 г.</name>
      <styleUrl>#monumentIcon</styleUrl>
      <Point>
        <coordinates>30.526173,50.456306,0</coordinates>
      </Point>
    </Placemark>
    <Placemark>
      <name>Комплекс застройки Вечевой площади (каменный) 17-18 в.</name>
      <styleUrl>#monumentIcon</styleUrl>
      <Point>
        <coordinates>23.970369,50.055756,0</coordinates>
      </Point>
    </Placemark>
    <Placemark>
      <name>Комплекс Центральной площади (каменный) 19-20 в.</name>
      <styleUrl>#monumentIcon</styleUrl>
      <Point>
        <coordinates>25.935156,48.292458,0</coordinates>
      </Point>
    </Placemark>
    <Placemark>
      <name>Ливадийский дворец, 19-20 в.</name>
      <styleUrl>#monumentIcon</styleUrl>
      <Point>
        <coordinates>34.143272,44.468002,0</coordinates>
      </Point>
    </Placemark>
    <Placemark>
      <name>Концертний зал Унион, 1902 г.</name>
      <styleUrl>#monumentIcon</styleUrl>
      <Point>
        <coordinates>30.735958,46.47683,0</coordinates>
      </Point>
    </Placemark>
    <Placemark>
      <name>Лагерь Артек</name>
      <styleUrl>#monumentIcon</styleUrl>
      <Point>
        <coordinates>34.293865,44.552883,0</coordinates>
      </Point>
    </Placemark>
    <Placemark>
      <name>Кузнецовский дворец 1889 г.</name>
      <styleUrl>#monumentIcon</styleUrl>
      <Point>
        <coordinates>33.780273,44.389519,0</coordinates>
      </Point>
    </Placemark>
    <Placemark>
      <name>Критый рынок (каменный) 1910 г.</name>
      <styleUrl>#monumentIcon</styleUrl>
      <Point>
        <coordinates>30.521132,50.442444</coordinates>
      </Point>
    </Placemark>
    <Placemark>
      <name>Лавка, 18 в.</name>
      <styleUrl>#monumentIcon</styleUrl>
      <Point>
        <coordinates>27.220312,49.756451,0</coordinates>
      </Point>
    </Placemark>
    <Placemark>
      <name>Мавританская арка</name>
      <styleUrl>#monumentIcon</styleUrl>
      <Point>
        <coordinates>30.754387,46.464123,0</coordinates>
      </Point>
    </Placemark>
    <Placemark>
      <name>Дворец Ласточкино гнездо, 1912 г.</name>
      <styleUrl>#monumentIcon</styleUrl>
      <Point>
        <coordinates>34.128212,44.430676,0</coordinates>
      </Point>
    </Placemark>
    <Placemark>
      <name>Митридатская лесница (каменная) 1866 г.</name>
      <styleUrl>#monumentIcon</styleUrl>
      <Point>
        <coordinates>36.473156,45.351261,0</coordinates>
      </Point>
    </Placemark>